[{"lat": 37.1440586, "lng": 26.8598566, "name": "Βρομόλιθος"}, {"lat": 35.4746728, "lng": 27.1959562, "name": "Amopi"}, {"lat": 35.4726337, "lng": 27.1939552, "name": "Amopi"}, {"lat": 35.4537125, "lng": 27.1664666, "name": ""}, {"lat": 35.4487561, "lng": 27.161767, "name": ""}, {"lat": 35.5626986, "lng": 23.7780513, "name": ""}, {"lat": 35.2119338, "lng": 26.2675081, "name": "Κουρεμένος"}, {"lat": 36.7655858, "lng": 27.1231743, "name": "Tropical Beach"}, {"lat": 40.9479602, "lng": 24.4441037, "name": "Vranas Resort Beach Bar"}, {"lat": 37.6993215, "lng": 21.3175849, "name": "Skafidia Beach"}, {"lat": 37.5263176, "lng": 22.730924, "name": "Παραλία Κιβερίου"}, {"lat": 37.277938, "lng": 22.839666, "name": "Άγιος Χριστόφορος - Ζαρίτισι Τυρού"}, {"lat": 37.0751389, "lng": 25.5847871, "name": ""}, {"lat": 38.3003573, "lng": 26.1417853, "name": "Megas Limnionas Beach"}, {"lat": 40.786232, "lng": 24.664938, "name": "Παπαλιμάνι"}, {"lat": 37.7468702, "lng": 23.5484754, "name": "Pebblestone Beach"}, {"lat": 38.793295, "lng": 20.7399851, "name": "Ασπρογιαλός"}, {"lat": 38.7864837, "lng": 20.7536774, "name": "Λυγιά"}, {"lat": 38.7579492, "lng": 20.7633615, "name": ""}, {"lat": 38.6054352, "lng": 20.6129054, "name": "Aghiofili Beach"}, {"lat": 39.6439352, "lng": 22.8973909, "name": "Παραλία Ρακοποτάμου"}, {"lat": 39.8207532, "lng": 22.8067791, "name": "Παραλία Κουτσουπιάς"}, {"lat": 39.8087312, "lng": 22.83098, "name": "Παραλία Παλιουριάς"}, {"lat": 38.5662929, "lng": 20.9126625, "name": "Mylos beach"}, {"lat": 39.897749, "lng": 22.7200192, "name": "Παραλία Αλεξανδρινής"}, {"lat": 39.8474345, "lng": 22.7777201, "name": "Παραλία Καλύβι"}, {"lat": 39.8492408, "lng": 22.7757094, "name": "Παραλία Πηγάδι"}, {"lat": 39.838514, "lng": 22.7884926, "name": "Παραλία Τσιλιγιώργος"}, {"lat": 39.8730055, "lng": 25.0608902, "name": ""}, {"lat": 36.6892193, "lng": 22.8326866, "name": "Πλαζ Πλύτρας"}, {"lat": 40.4248508, "lng": 22.6057965, "name": ""}, {"lat": 39.4415699, "lng": 23.1368155, "name": "Άγιοι Σαράντα"}, {"lat": 39.4176519, "lng": 23.1618332, "name": "Άγιος Ιωάννης"}, {"lat": 39.4101046, "lng": 23.1688015, "name": "Παπά Νερό"}, {"lat": 36.659011, "lng": 24.4020708, "name": "Αγία Κυριακή"}, {"lat": 36.6579715, "lng": 24.40811, "name": "Ψαθί"}, {"lat": 36.6574831, "lng": 24.4118256, "name": ""}, {"lat": 36.6588956, "lng": 24.414026, "name": ""}, {"lat": 36.6597842, "lng": 24.4195787, "name": ""}, {"lat": 39.4566249, "lng": 19.8703091, "name": "Alonaki Bay"}, {"lat": 39.410731, "lng": 20.236596, "name": "Γαλλικός Μώλος"}, {"lat": 40.7773796, "lng": 24.6022259, "name": "Blue Lake"}, {"lat": 36.9935891, "lng": 25.2097259, "name": "Παραλια Λωλαντώη"}, {"lat": 37.0106579, "lng": 25.2405159, "name": "Παραλία Αγκάλη Χρυσής Ακτής"}, {"lat": 38.6723531, "lng": 23.9118427, "name": "Ανεμάκι"}, {"lat": 38.9284489, "lng": 21.1404487, "name": "Bouka Beach"}, {"lat": 39.0410474, "lng": 20.7098451, "name": "Nicopolis Club"}, {"lat": 40.0242509, "lng": 24.0175252, "name": "Kristina Beach"}, {"lat": 38.4142921, "lng": 24.202743, "name": "Κακολίμανο"}, {"lat": 37.8418357, "lng": 20.8040693, "name": "Amoudy Beach"}, {"lat": 40.0965762, "lng": 23.4409384, "name": "Μουδουνού"}, {"lat": 40.1032217, "lng": 23.435728, "name": "Βάρκες"}, {"lat": 40.0238791, "lng": 23.3633898, "name": "Αγιος Νικόλαος"}, {"lat": 37.3518779, "lng": 23.4635912, "name": "Σπηλιά"}, {"lat": 37.2980097, "lng": 23.3749025, "name": "Αγ. Νικόλας"}, {"lat": 37.319737, "lng": 23.3970707, "name": "Καουμίθι"}, {"lat": 39.4080725, "lng": 19.993137, "name": "Maltas beach"}, {"lat": 39.8527719, "lng": 22.7707193, "name": "Παραλία Ψαρόλακας"}, {"lat": 35.410138, "lng": 26.8951019, "name": "Amoua beach / Aμμούα - αμμώδης παραλία"}, {"lat": 38.3798478, "lng": 22.395196, "name": "Κεντρί"}, {"lat": 38.3981721, "lng": 22.3795168, "name": ""}, {"lat": 37.6587122, "lng": 26.7817949, "name": "ΑΡΑΠΗΣ"}, {"lat": 37.6503843, "lng": 26.7855414, "name": "Παραλία Βεργής"}, {"lat": 35.5055104, "lng": 24.1758624, "name": "Marathi beach"}, {"lat": 37.5127171, "lng": 23.4439234, "name": "Μεγάλο Νεώριο"}, {"lat": 37.5085005, "lng": 23.4476164, "name": "Μικρό Νεώριο"}, {"lat": 40.8475922, "lng": 25.8364633, "name": "Paralia Alexander"}, {"lat": 37.6488751, "lng": 20.8157858, "name": "Μεγάλη Μυζήθρα"}, {"lat": 38.6346531, "lng": 23.1309608, "name": "Αγιόνερο"}, {"lat": 36.6109493, "lng": 24.9510575, "name": "Λατινάκι"}, {"lat": 38.5129333, "lng": 26.1504474, "name": ""}, {"lat": 38.5180782, "lng": 26.1506821, "name": ""}, {"lat": 36.5909951, "lng": 26.3835744, "name": ""}, {"lat": 37.739825, "lng": 20.7014546, "name": "Porto Limnionas"}, {"lat": 37.7285697, "lng": 20.7100082, "name": "Porto Roxa"}, {"lat": 40.5799766, "lng": 23.8085758, "name": "Βοριάς Λιμάνι"}, {"lat": 40.3855183, "lng": 22.6208746, "name": "Άμμος"}, {"lat": 35.3650925, "lng": 25.0396539, "name": ""}, {"lat": 39.1462746, "lng": 23.627203, "name": "Ανεμόπετρα"}, {"lat": 35.3641895, "lng": 25.0390514, "name": ""}, {"lat": 36.8048286, "lng": 21.7985098, "name": ""}, {"lat": 36.4413648, "lng": 25.4518798, "name": ""}, {"lat": 39.7235911, "lng": 19.8874577, "name": ""}, {"lat": 39.7240353, "lng": 19.8939869, "name": ""}, {"lat": 36.950244, "lng": 22.1424732, "name": "Hobo"}, {"lat": 37.2421577, "lng": 22.8743359, "name": "Λυγαριά"}, {"lat": 37.1241294, "lng": 25.2134111, "name": "Limnes beach"}, {"lat": 36.9931859, "lng": 25.2182343, "name": "Pyrgaki beach"}, {"lat": 37.005884, "lng": 25.1098377, "name": "Voutakos beach"}, {"lat": 37.0818737, "lng": 25.1456289, "name": "Beach"}, {"lat": 38.7248593, "lng": 23.0610615, "name": "Άι Γιάννης"}, {"lat": 38.7346786, "lng": 23.0497902, "name": "Σχοινιά"}, {"lat": 40.8684675, "lng": 25.5273751, "name": "Μαρμαρίτσα"}, {"lat": 37.9291771, "lng": 23.5386632, "name": ""}, {"lat": 40.6217512, "lng": 24.5898986, "name": ""}, {"lat": 40.6635211, "lng": 23.7092109, "name": "Favela"}, {"lat": 35.3383642, "lng": 25.0695816, "name": "Havana Beach Bar"}, {"lat": 36.9861692, "lng": 25.1548865, "name": ""}, {"lat": 39.3554811, "lng": 20.2882597, "name": ""}, {"lat": 37.1361642, "lng": 25.2703373, "name": "Langeri Beach"}, {"lat": 37.0945122, "lng": 25.1544115, "name": "Tango Mar"}, {"lat": 37.0937947, "lng": 25.1554945, "name": "Ναυτικός όμιλος Πάρου"}, {"lat": 39.5365906, "lng": 19.9172023, "name": ""}, {"lat": 38.7165051, "lng": 23.3650994, "name": "Γαλατάκι"}, {"lat": 36.9555413, "lng": 24.9999277, "name": "Λιβάδι"}, {"lat": 38.5289329, "lng": 23.6297382, "name": ""}, {"lat": 38.6644189, "lng": 23.9373566, "name": ""}, {"lat": 38.7702033, "lng": 23.2961194, "name": "Παραλια"}, {"lat": 38.3529528, "lng": 21.6628339, "name": ""}, {"lat": 38.4332003, "lng": 21.3520868, "name": "Παραλία Άγαλμα"}, {"lat": 38.4394136, "lng": 21.3546556, "name": "Παραλία Κανάλι"}, {"lat": 38.4299562, "lng": 21.348039, "name": "Παραλία Ρεμπάκια"}, {"lat": 38.4546612, "lng": 21.3343763, "name": "Παραλία Αστροβίτσα"}, {"lat": 40.267016, "lng": 23.4511696, "name": "Ikos Olivia"}, {"lat": 38.5791326, "lng": 23.5336136, "name": ""}, {"lat": 38.5776313, "lng": 23.5299017, "name": ""}, {"lat": 38.6719482, "lng": 23.9165227, "name": ""}, {"lat": 38.5043233, "lng": 23.6342978, "name": ""}, {"lat": 36.6226873, "lng": 27.8363332, "name": "Παραλία της Σάρα"}, {"lat": 38.6608613, "lng": 23.9549922, "name": "Παραλία Μετοχίου"}, {"lat": 38.8867578, "lng": 22.7111509, "name": "Καραβόμυλος"}, {"lat": 39.2850253, "lng": 20.3909469, "name": "Valtos Beach"}, {"lat": 38.7616538, "lng": 20.7187707, "name": ""}, {"lat": 37.2061646, "lng": 22.8936893, "name": ""}, {"lat": 38.7241346, "lng": 20.7296964, "name": "Passa Beach"}, {"lat": 37.2449757, "lng": 22.8709091, "name": ""}, {"lat": 38.4259909, "lng": 22.4560691, "name": "Ακτή Βραχάκια"}, {"lat": 36.9429212, "lng": 25.070324, "name": "Ακτή Παναγίας Φανερωμένης"}, {"lat": 40.0996868, "lng": 23.3049739, "name": "Sani Hill"}, {"lat": 40.152947, "lng": 22.5488569, "name": ""}, {"lat": 37.7451605, "lng": 23.5494664, "name": ""}, {"lat": 37.7463572, "lng": 23.5470235, "name": ""}, {"lat": 37.7466674, "lng": 23.5465565, "name": ""}, {"lat": 37.7455743, "lng": 23.542036, "name": ""}, {"lat": 37.746372, "lng": 23.5441094, "name": ""}, {"lat": 37.7464163, "lng": 23.5452676, "name": ""}, {"lat": 37.7463276, "lng": 23.5428952, "name": ""}, {"lat": 37.7451312, "lng": 23.53929, "name": ""}, {"lat": 39.0873108, "lng": 23.1179781, "name": ""}, {"lat": 39.1010402, "lng": 23.1665968, "name": ""}, {"lat": 39.125932, "lng": 23.2090199, "name": ""}, {"lat": 38.7445305, "lng": 22.973469, "name": "Παραλία Αγίου Νικολάου"}, {"lat": 38.7451686, "lng": 22.9665508, "name": "Παραλία Τριανταφυλλιάς"}, {"lat": 37.5901539, "lng": 26.2535396, "name": "παραλία"}, {"lat": 40.6259037, "lng": 24.5692372, "name": "Λιμενάρια"}, {"lat": 37.3710172, "lng": 21.6869631, "name": ""}, {"lat": 37.368619, "lng": 21.6881153, "name": ""}, {"lat": 36.9308908, "lng": 21.9344726, "name": ""}, {"lat": 38.920324, "lng": 20.9971823, "name": "Παραλία Ρούγας"}, {"lat": 40.2944395, "lng": 22.6120552, "name": ""}, {"lat": 38.8339921, "lng": 22.6531091, "name": ""}, {"lat": 36.9242193, "lng": 25.9774461, "name": "Ormos Mikri Vichlada"}, {"lat": 37.0392012, "lng": 25.2616305, "name": ""}, {"lat": 37.0584621, "lng": 25.1097189, "name": "Αγία Ειρήνη"}, {"lat": 36.7992853, "lng": 24.5897791, "name": "Κλήμα"}, {"lat": 36.8059363, "lng": 24.5900237, "name": "Άγιος Μηνάς"}, {"lat": 37.1000524, "lng": 25.7959955, "name": "Σταυρός"}, {"lat": 37.0919735, "lng": 25.8224065, "name": "Λιβάδι"}, {"lat": 37.69445, "lng": 23.4328474, "name": ""}, {"lat": 37.6923658, "lng": 23.4500243, "name": ""}, {"lat": 39.1645567, "lng": 23.9039917, "name": "Κοκκινοκαστρο"}, {"lat": 36.7129661, "lng": 22.527448, "name": "Nude beach"}, {"lat": 40.6392788, "lng": 24.5157636, "name": "Ατσπάς"}, {"lat": 40.7087808, "lng": 24.7606513, "name": "Χρυσή Ακτή"}, {"lat": 40.7191734, "lng": 24.7574632, "name": "Αναψυκτήριο"}, {"lat": 40.7306128, "lng": 24.7609749, "name": "Χρυσή Αμμουδιά"}, {"lat": 40.7904049, "lng": 24.6279906, "name": "Παχύς"}, {"lat": 40.6740911, "lng": 24.5173034, "name": "Κλίσμα"}, {"lat": 40.6779364, "lng": 24.5206056, "name": "Κλίσμα"}, {"lat": 37.8205698, "lng": 23.8046064, "name": "Yabanaki"}, {"lat": 40.2906038, "lng": 23.1231232, "name": "Παραλία Βεργιάς"}, {"lat": 38.9071675, "lng": 21.1151967, "name": "Παραλία Κουλούρι"}, {"lat": 38.3391796, "lng": 21.8494018, "name": "Kite Surfing"}, {"lat": 38.3253734, "lng": 21.9240627, "name": ""}, {"lat": 38.3258118, "lng": 21.9246726, "name": ""}, {"lat": 38.3255356, "lng": 21.9243502, "name": ""}, {"lat": 38.1823541, "lng": 22.2129453, "name": ""}, {"lat": 38.1815249, "lng": 22.2134467, "name": ""}, {"lat": 37.2756932, "lng": 22.8446197, "name": "Ζαρίτσι"}, {"lat": 37.8633632, "lng": 24.0401837, "name": "Πανόραμα"}, {"lat": 37.4574379, "lng": 24.8992709, "name": ""}, {"lat": 40.8425562, "lng": 25.8746781, "name": ""}, {"lat": 37.8357389, "lng": 21.1843843, "name": ""}, {"lat": 37.8733434, "lng": 24.0343208, "name": "Νησίδα Κεκροπούλα"}, {"lat": 37.8005728, "lng": 23.7888795, "name": ""}, {"lat": 37.7994075, "lng": 23.7887899, "name": ""}, {"lat": 38.3915604, "lng": 21.8268633, "name": "Πλαζ Ναυπάκτου"}, {"lat": 38.1863271, "lng": 22.2111248, "name": ""}, {"lat": 37.5784487, "lng": 22.734187, "name": "Παραλία Τιμενίου"}, {"lat": 38.260759, "lng": 22.1006854, "name": "Παραλία Αλυκή"}, {"lat": 38.2642647, "lng": 22.1112026, "name": "Παραλία Αλυκή"}, {"lat": 40.6672191, "lng": 23.6954523, "name": "Τζαζ"}, {"lat": 35.1964894, "lng": 25.7142332, "name": ""}, {"lat": 37.7171207, "lng": 20.989626, "name": "Πόρτο Ρώμα"}, {"lat": 38.3691939, "lng": 22.0778033, "name": ""}, {"lat": 38.3996921, "lng": 21.994256, "name": ""}, {"lat": 38.3843353, "lng": 21.8459939, "name": "Kitesurf spot"}, {"lat": 38.4156962, "lng": 21.3742005, "name": "Highly salted sea"}, {"lat": 37.4526103, "lng": 22.7462014, "name": "Καρακατσάνης"}, {"lat": 37.4396821, "lng": 22.749061, "name": "Παραλία Βερβένων"}, {"lat": 36.9058228, "lng": 22.2018252, "name": "Velonas"}, {"lat": 36.8955585, "lng": 22.1604389, "name": ""}, {"lat": 36.5400333, "lng": 26.3402794, "name": "Άγιος Βασίλειος"}, {"lat": 36.5663738, "lng": 26.3578835, "name": "Μαμούνια"}, {"lat": 36.5352023, "lng": 26.3432274, "name": "Τζανάκι"}, {"lat": 37.7328706, "lng": 23.1182121, "name": ""}, {"lat": 37.4862673, "lng": 24.8991648, "name": "Αη Λουκάς"}, {"lat": 38.6387716, "lng": 20.9952051, "name": "Αγριλιά"}, {"lat": 36.7643482, "lng": 27.0154397, "name": "Lagada Beach"}, {"lat": 36.7881721, "lng": 25.3094795, "name": "Kalo Avlaki"}, {"lat": 36.1602717, "lng": 29.5977058, "name": "Πλάκες"}, {"lat": 39.0382775, "lng": 26.1401349, "name": ""}, {"lat": 40.6082786, "lng": 24.6072675, "name": ""}, {"lat": 35.166432, "lng": 25.7108433, "name": ""}, {"lat": 35.1664927, "lng": 25.7107867, "name": ""}, {"lat": 38.3466899, "lng": 21.1003701, "name": "Παραλία Διόνι"}, {"lat": 38.3429705, "lng": 21.6167693, "name": ""}, {"lat": 37.3305267, "lng": 21.6972449, "name": "Παραλία Βουνάκι"}, {"lat": 38.6326587, "lng": 23.1276486, "name": "Παραλία Τραγάνας"}, {"lat": 35.4497417, "lng": 24.1988179, "name": ""}, {"lat": 37.2950587, "lng": 22.8322981, "name": "Άμμος του Μουλά"}, {"lat": 39.1486774, "lng": 23.3917609, "name": ""}, {"lat": 39.1473507, "lng": 23.3924454, "name": ""}, {"lat": 39.146905, "lng": 23.3926093, "name": ""}, {"lat": 39.1463651, "lng": 23.3925795, "name": ""}, {"lat": 39.1492155, "lng": 23.3919315, "name": ""}, {"lat": 40.3195429, "lng": 23.0364547, "name": "Ammos"}, {"lat": 37.7036133, "lng": 23.3717709, "name": "Skliri Beach"}, {"lat": 40.4654895, "lng": 22.8558248, "name": "Παραλία Νέας Μηχανιώνας"}, {"lat": 39.4794041, "lng": 21.3261552, "name": "Καζάνια"}, {"lat": 39.481245, "lng": 21.3275973, "name": "Ασπροπέτρα"}, {"lat": 37.8056977, "lng": 23.851859, "name": "Παραλία Σκάλες Αλθέας"}, {"lat": 37.8074521, "lng": 23.8487198, "name": "Παραλία Αλθέας"}, {"lat": 38.143504, "lng": 23.193329, "name": ""}, {"lat": 38.1411762, "lng": 23.1848907, "name": ""}, {"lat": 38.1443763, "lng": 23.2075574, "name": ""}, {"lat": 38.1434355, "lng": 23.2144145, "name": ""}, {"lat": 38.2370784, "lng": 22.8896304, "name": "Παραλία Σαράντη"}, {"lat": 34.8741774, "lng": 25.7294578, "name": "Βάγκες"}, {"lat": 34.8765143, "lng": 25.731169, "name": "Καταπρόσωπο"}, {"lat": 38.6334903, "lng": 21.0014445, "name": "Χιόνι"}, {"lat": 38.5838509, "lng": 21.0201604, "name": "Βελά"}, {"lat": 38.9291451, "lng": 20.8486454, "name": "Μυρτάρι"}, {"lat": 40.0502371, "lng": 23.4717397, "name": "Agora Beach Bar & Restaurant"}, {"lat": 40.0526869, "lng": 23.4694688, "name": ""}, {"lat": 39.4011681, "lng": 24.1831144, "name": ""}, {"lat": 37.6884304, "lng": 26.3640511, "name": ""}, {"lat": 36.4813386, "lng": 23.1633081, "name": ""}, {"lat": 38.3475536, "lng": 21.4292882, "name": "Παραλία Αγίας Τριάδας"}, {"lat": 36.9498917, "lng": 22.1427539, "name": "Παραλία Σάντοβας"}, {"lat": 39.0908204, "lng": 26.1036504, "name": "Παραλία Αμμούδι"}, {"lat": 38.3773625, "lng": 22.3902933, "name": "Skoules Mikri Megali"}, {"lat": 38.3777607, "lng": 22.3905682, "name": ""}, {"lat": 38.2721977, "lng": 22.7983067, "name": "Ζάλτσα"}, {"lat": 40.9139845, "lng": 25.3761166, "name": ""}, {"lat": 40.9138332, "lng": 25.3762621, "name": ""}, {"lat": 40.9138798, "lng": 25.3759112, "name": ""}, {"lat": 40.9137233, "lng": 25.3760498, "name": ""}, {"lat": 35.2212064, "lng": 26.0672501, "name": "Trachilias Beach"}, {"lat": 40.5204574, "lng": 23.8838401, "name": "Λιβάδι"}, {"lat": 37.0967511, "lng": 25.3753814, "name": "Naxaki Beach Lounge and Restaurant"}, {"lat": 39.9573928, "lng": 23.3583542, "name": "Μύτη"}, {"lat": 35.5076888, "lng": 23.6385156, "name": ""}, {"lat": 37.4331652, "lng": 25.4047612, "name": "Sentu Mykonos"}, {"lat": 39.0113832, "lng": 20.9256986, "name": "Φράχτης"}, {"lat": 37.1851768, "lng": 22.9050751, "name": "Παραλία Θιόπαυτο"}, {"lat": 35.4768894, "lng": 23.5657397, "name": "Tiny beach pink sand"}, {"lat": 36.618828, "lng": 22.4985508, "name": ""}, {"lat": 39.3193301, "lng": 26.409269, "name": "Beach Tokmakia"}, {"lat": 36.5423564, "lng": 26.3522142, "name": "Μαγαζάκι"}, {"lat": 38.206097, "lng": 26.0608182, "name": "Lilikas"}, {"lat": 38.337054, "lng": 23.7640831, "name": "Παραλία Ακρωτηρίου"}, {"lat": 38.3318893, "lng": 23.7779421, "name": "Παραλία Αγίου Κωνσταντίνου"}, {"lat": 38.3360613, "lng": 23.7523344, "name": "Παραλία Αγίας Παρασκευής"}, {"lat": 36.972461, "lng": 24.7461056, "name": ""}, {"lat": 40.8585003, "lng": 24.749693, "name": "Monastiraki Beach"}, {"lat": 37.6637894, "lng": 21.310277, "name": ""}, {"lat": 37.1699153, "lng": 26.8484731, "name": "Dyo Liskaria"}, {"lat": 37.1567221, "lng": 26.842461, "name": ""}, {"lat": 37.1571428, "lng": 26.8489675, "name": ""}, {"lat": 39.1255985, "lng": 23.6516213, "name": "Νερακι"}, {"lat": 39.0895388, "lng": 23.6594629, "name": "Τραχηλι"}, {"lat": 36.6224439, "lng": 27.8379742, "name": "Nude Swimming Area"}, {"lat": 34.9833288, "lng": 25.3085704, "name": "Παραλία Κρασά"}, {"lat": 34.9837285, "lng": 25.305522, "name": ""}, {"lat": 38.5556136, "lng": 20.8996784, "name": "Βαθιά Βάλη"}, {"lat": 37.8891515, "lng": 23.4279162, "name": ""}, {"lat": 38.0454202, "lng": 24.3215147, "name": "Steni Beach"}, {"lat": 38.1925366, "lng": 23.0909378, "name": "Παρ. Κορομίλι"}, {"lat": 37.7384666, "lng": 20.9056808, "name": "Kaliva Residence"}, {"lat": 38.4389379, "lng": 20.6338343, "name": "Little Polis Beach"}, {"lat": 35.1832018, "lng": 24.2500224, "name": "Orthi Ammos Paralia"}, {"lat": 38.1181881, "lng": 23.9917074, "name": "Παραλία Μαραθώνα"}, {"lat": 36.8259002, "lng": 25.9059481, "name": "Agia Anna Beach"}, {"lat": 37.6366649, "lng": 23.1616688, "name": ""}, {"lat": 40.2137576, "lng": 23.3321545, "name": "Lagoon"}, {"lat": 37.8889736, "lng": 23.4281603, "name": "Μικρό Λαμπρανό"}, {"lat": 40.503672, "lng": 25.6043289, "name": ""}, {"lat": 40.2361943, "lng": 23.7411708, "name": ""}, {"lat": 40.2373886, "lng": 23.7418073, "name": ""}, {"lat": 40.237388, "lng": 23.7443551, "name": ""}, {"lat": 37.3261046, "lng": 26.5433868, "name": "Saint Theologos Beach"}, {"lat": 37.3115574, "lng": 26.560898, "name": "Sapsila"}, {"lat": 37.3268323, "lng": 26.555874, "name": "Aspri"}, {"lat": 37.8591141, "lng": 20.6248999, "name": "Όρμος του Αγίου Γεωργίου"}, {"lat": 40.1317277, "lng": 23.406681, "name": "Small beach"}, {"lat": 38.7581937, "lng": 20.7206238, "name": "Nikiana South beach"}, {"lat": 40.0491545, "lng": 23.8017572, "name": ""}, {"lat": 39.9616007, "lng": 23.494624, "name": ""}, {"lat": 39.7610552, "lng": 22.8606046, "name": ""}, {"lat": 40.0507964, "lng": 23.8004627, "name": ""}, {"lat": 39.9212146, "lng": 23.6070463, "name": ""}, {"lat": 39.9535617, "lng": 22.7075549, "name": ""}, {"lat": 40.0487464, "lng": 23.8071234, "name": ""}, {"lat": 39.9215398, "lng": 23.6015136, "name": ""}, {"lat": 40.0517091, "lng": 23.7995161, "name": ""}, {"lat": 40.0544688, "lng": 23.7956914, "name": ""}, {"lat": 39.9317068, "lng": 23.7426137, "name": ""}, {"lat": 39.9492025, "lng": 22.7111483, "name": ""}, {"lat": 40.0693975, "lng": 23.7901951, "name": ""}, {"lat": 39.2164087, "lng": 23.1877823, "name": ""}, {"lat": 40.0536913, "lng": 23.7974119, "name": ""}, {"lat": 39.2109763, "lng": 23.189951, "name": ""}, {"lat": 40.0499704, "lng": 23.8028604, "name": ""}, {"lat": 39.2777765, "lng": 25.9945735, "name": ""}, {"lat": 40.0275316, "lng": 23.8138253, "name": ""}, {"lat": 39.9129448, "lng": 23.7251971, "name": ""}, {"lat": 40.0528704, "lng": 23.7979569, "name": ""}, {"lat": 38.3719021, "lng": 20.74195, "name": "Filiatro"}, {"lat": 38.6480587, "lng": 20.9600894, "name": ""}, {"lat": 40.3013103, "lng": 23.0868668, "name": "Παραλία Γυμνιστών Μυκονιάτικα"}, {"lat": 35.5915638, "lng": 24.0862095, "name": "Pahia Ammos Nudist Beach"}, {"lat": 39.1425026, "lng": 23.0929234, "name": "Izgoud"}, {"lat": 36.9477268, "lng": 21.7058149, "name": "Παραλία Γιάλοβα"}, {"lat": 36.9508043, "lng": 21.6986609, "name": "Παραλία Γιάλοβα"}, {"lat": 35.5509139, "lng": 24.0797833, "name": "White Beach"}, {"lat": 36.8892944, "lng": 27.1687982, "name": "Fkk Beach"}, {"lat": 38.3940094, "lng": 24.0431588, "name": ""}, {"lat": 34.8595503, "lng": 24.0629156, "name": "Ποταμός"}, {"lat": 34.866843, "lng": 24.0660517, "name": "Πύργος"}, {"lat": 34.8707162, "lng": 24.0722745, "name": "Λαβρακάς"}, {"lat": 34.8676177, "lng": 24.084677, "name": "Αγ. Γιάννης"}, {"lat": 34.8044668, "lng": 24.1235976, "name": "Τρυπητή"}, {"lat": 34.8160065, "lng": 24.1238551, "name": "Λακκούδι"}, {"lat": 38.1948893, "lng": 20.3437822, "name": "Παραλία Γιαλισκάρι"}, {"lat": 35.3151393, "lng": 23.5336694, "name": "Voulolimni"}, {"lat": 36.8058639, "lng": 22.6653294, "name": ""}, {"lat": 41.058313, "lng": 22.523103, "name": "παραλία Τσιγκάνας"}, {"lat": 40.4236646, "lng": 25.5172278, "name": "Παραλία Μακρυλιές"}, {"lat": 37.7177046, "lng": 20.7286018, "name": "Korakonisi"}, {"lat": 36.5722975, "lng": 26.3833198, "name": "Μπλε Λιμανάκι"}, {"lat": 35.4102492, "lng": 24.8278864, "name": "Παραλία Κατεβατή"}, {"lat": 39.6342168, "lng": 20.1711482, "name": ""}, {"lat": 39.5857258, "lng": 22.9267965, "name": "Paralia Ai Giannis"}, {"lat": 38.1360444, "lng": 22.4897837, "name": "παραλία Λυκοποριάς"}, {"lat": 38.6768575, "lng": 23.201438, "name": "Φλοισβος Πλαζ"}, {"lat": 38.7545416, "lng": 23.0298112, "name": "Μεγάλη Σουβάλα"}, {"lat": 38.7533347, "lng": 23.0353495, "name": "Μικρή Σουβάλα"}, {"lat": 39.1880905, "lng": 20.165358, "name": "Galazio Beach"}, {"lat": 37.9379579, "lng": 21.1448092, "name": "Kyllini Beach"}, {"lat": 38.7552411, "lng": 22.934664, "name": "Παραλία Καναπίτσα"}, {"lat": 37.461598, "lng": 24.4330421, "name": "Agios Sostis"}, {"lat": 37.4619971, "lng": 24.4340691, "name": "Agios Sostis"}, {"lat": 39.9812173, "lng": 23.6662416, "name": "Παραλία Γυμνιστών Γλαρόκαβος"}, {"lat": 40.1928335, "lng": 23.8103948, "name": "Παραλία Γυμνιστών"}, {"lat": 39.9935969, "lng": 23.892619, "name": "Παραλία Γυμνιστιών Δεστινίκα"}, {"lat": 39.9587893, "lng": 23.3584665, "name": "Παραλία Γυμνιστών Μύτη"}, {"lat": 40.1110476, "lng": 23.3129144, "name": "Παραλία Γυμνιστών"}, {"lat": 40.2172677, "lng": 23.333608, "name": "Παραλία Γυμνιστών"}, {"lat": 40.5065065, "lng": 22.8296048, "name": "Παραλία Γυμνιστών"}, {"lat": 40.8471478, "lng": 25.8482717, "name": "Santa Rosa Hotel"}, {"lat": 38.7460466, "lng": 22.9930335, "name": "Κέδρος"}, {"lat": 40.5860084, "lng": 23.7963029, "name": "Άμμος"}, {"lat": 38.630999, "lng": 20.6926944, "name": ""}, {"lat": 38.4097803, "lng": 26.1348829, "name": ""}, {"lat": 37.1757293, "lng": 26.8500019, "name": "Kryfos"}, {"lat": 37.1194581, "lng": 26.8279832, "name": "Paralia Lakkiou"}, {"lat": 40.848315, "lng": 25.8310265, "name": "Orizont Beach"}, {"lat": 40.8493701, "lng": 25.8263193, "name": "Janeiro Beach"}, {"lat": 40.849928, "lng": 25.8231248, "name": "Bikini Beach"}, {"lat": 35.5216936, "lng": 24.040977, "name": "Κουλούρα"}, {"lat": 40.1871441, "lng": 23.818174, "name": "Brounou Beach"}, {"lat": 36.2628302, "lng": 23.078771, "name": ""}, {"lat": 36.2630734, "lng": 23.0783951, "name": ""}, {"lat": 40.8489849, "lng": 25.8286502, "name": "Nea Chili Beach"}, {"lat": 40.8491864, "lng": 25.8274012, "name": "Cavo Beach"}, {"lat": 36.3997713, "lng": 22.4845408, "name": "Ρωμαϊκή Παραλία"}, {"lat": 36.7132947, "lng": 22.5278777, "name": "FFK Unofficial Beach"}, {"lat": 37.519727, "lng": 22.9408021, "name": "GBeach"}, {"lat": 37.5198176, "lng": 22.9445686, "name": "Unofficial Nudist Beach"}, {"lat": 37.8009406, "lng": 23.7922127, "name": "Unofficial Nudist Beach"}, {"lat": 37.7997224, "lng": 23.7967388, "name": "Nudist Beach Not Official"}, {"lat": 37.659874, "lng": 23.9777654, "name": "Unofficial Nudist Beach"}, {"lat": 37.7231455, "lng": 23.9081202, "name": "Unofficial Nudist Beach"}, {"lat": 37.7226396, "lng": 23.9083128, "name": "FKK Beach"}, {"lat": 37.7226986, "lng": 23.908243, "name": "FKK Beach"}, {"lat": 36.7607645, "lng": 22.7951798, "name": "Alas Resort & Spa"}, {"lat": 40.3931752, "lng": 23.8942337, "name": "Mount Athos Resort"}, {"lat": 39.1703676, "lng": 23.9811939, "name": "Strand"}, {"lat": 36.6760668, "lng": 22.5241318, "name": "100 Rizes Seaside Resort"}, {"lat": 36.9505466, "lng": 21.7009833, "name": "Zoe Seaside Resort"}, {"lat": 38.8504254, "lng": 22.9879607, "name": "Παραλία Γιάλτρων"}, {"lat": 35.9142039, "lng": 27.8253909, "name": "Άγιος Γεώργιος"}, {"lat": 39.3566645, "lng": 23.2202405, "name": "Λίθος"}, {"lat": 40.8146369, "lng": 21.0698365, "name": "Παραλία Κούλας"}, {"lat": 37.7314803, "lng": 23.904302, "name": ""}, {"lat": 40.9392388, "lng": 24.9906898, "name": "Coco Beach Bar"}, {"lat": 40.7852947, "lng": 24.7156147, "name": "Καρνάγιο"}, {"lat": 40.782734, "lng": 24.7145849, "name": "Aqua Beach Bar"}, {"lat": 40.7829112, "lng": 24.7146921, "name": "AMMOS"}, {"lat": 40.7831204, "lng": 24.7148538, "name": "Φταπόδι"}, {"lat": 40.7825596, "lng": 24.7143023, "name": "Στράτος"}, {"lat": 40.7824209, "lng": 24.7141443, "name": "Sonido del mar"}, {"lat": 40.782169, "lng": 24.7137027, "name": "Island Beach Bar"}, {"lat": 40.3096302, "lng": 23.0634276, "name": "Παραλία Νέας Καλλικράτειας"}, {"lat": 40.3180154, "lng": 23.0380291, "name": ""}, {"lat": 40.3481339, "lng": 23.0092704, "name": ""}, {"lat": 40.4935807, "lng": 22.8178453, "name": ""}, {"lat": 40.5891763, "lng": 22.9433117, "name": ""}, {"lat": 40.5871822, "lng": 22.9395359, "name": ""}, {"lat": 40.4433842, "lng": 22.8651188, "name": ""}, {"lat": 40.4329908, "lng": 22.8683374, "name": ""}, {"lat": 35.5873276, "lng": 27.0699808, "name": "Gialou Chorafi"}, {"lat": 35.5571802, "lng": 27.2036954, "name": "Achata"}, {"lat": 34.9301441, "lng": 24.9238824, "name": ""}, {"lat": 37.1614749, "lng": 24.5229023, "name": "Ψιλή Άμμος"}, {"lat": 37.1236102, "lng": 24.49546, "name": "Καλό Αμπέλι"}, {"lat": 39.2830082, "lng": 20.4042863, "name": "Κρυονέρι"}, {"lat": 39.2819703, "lng": 20.4070599, "name": "Πίσω Κρυονέρι"}, {"lat": 36.6619348, "lng": 24.4693414, "name": "Τσιγκράδο"}, {"lat": 36.4676179, "lng": 25.3682814, "name": "Katharos"}, {"lat": 36.4378917, "lng": 27.3878215, "name": "Lethra Beach"}, {"lat": 36.3857679, "lng": 27.4054963, "name": "Agios Sergios"}, {"lat": 36.4325208, "lng": 27.3492969, "name": "Eristos"}, {"lat": 40.2142777, "lng": 23.6684267, "name": "Παραλία Νικήτης"}, {"lat": 40.1960696, "lng": 23.682979, "name": "Παραλία Μικρό Καστρί"}, {"lat": 36.8048916, "lng": 22.723479, "name": "Κυανή Ακτή"}, {"lat": 40.6091906, "lng": 23.7807508, "name": "Χρυσή αμμουδιά"}, {"lat": 40.6628812, "lng": 23.7162061, "name": "παραλία Μηλιές"}, {"lat": 38.2950869, "lng": 21.7676341, "name": ""}, {"lat": 37.8178907, "lng": 21.1954075, "name": ""}, {"lat": 37.7966401, "lng": 21.2541783, "name": ""}, {"lat": 35.2385496, "lng": 23.722509, "name": "Anidri Beach"}, {"lat": 35.2480681, "lng": 23.8120918, "name": "Sougia Beach"}, {"lat": 35.2335417, "lng": 23.6867247, "name": "Χαλίκια"}, {"lat": 37.7059948, "lng": 21.3195754, "name": ""}, {"lat": 36.4770921, "lng": 27.3539417, "name": "Skafi"}, {"lat": 35.2400576, "lng": 23.7872158, "name": "Παραλία Λισσός"}, {"lat": 35.1661628, "lng": 24.4218207, "name": "Σχοινάρια"}, {"lat": 35.1851907, "lng": 24.3981058, "name": "Παραλία Πλακιά"}, {"lat": 39.3500973, "lng": 22.9627098, "name": "Άναυρος"}, {"lat": 40.5911619, "lng": 23.7955082, "name": "Στάγεια"}, {"lat": 40.6213137, "lng": 23.7730339, "name": ""}, {"lat": 40.5912526, "lng": 23.7913901, "name": "Συκιά"}, {"lat": 40.5857021, "lng": 23.7969498, "name": "Πρώτη Αμμουδιά"}, {"lat": 40.5884279, "lng": 23.7949393, "name": "Κεφάλας"}, {"lat": 40.6152401, "lng": 23.7801119, "name": ""}, {"lat": 37.0487528, "lng": 25.0849867, "name": "Teologos, Psaralidhdiki"}, {"lat": 40.0986211, "lng": 23.3083955, "name": ""}, {"lat": 39.2465616, "lng": 23.1823895, "name": "Γούρνα"}, {"lat": 39.2266216, "lng": 23.1825964, "name": ""}, {"lat": 39.2735442, "lng": 23.1616679, "name": ""}, {"lat": 39.2670601, "lng": 23.1664413, "name": "Αμποβός"}, {"lat": 39.249213, "lng": 23.1817078, "name": "Λεφόκαστρο"}, {"lat": 39.2564762, "lng": 23.1757631, "name": "Αγιά Θυμιά"}, {"lat": 39.259917, "lng": 23.1733329, "name": "Ραζή"}, {"lat": 39.2576386, "lng": 23.1750065, "name": "Αγιά Θυμιά"}, {"lat": 39.4107738, "lng": 20.2364795, "name": ""}, {"lat": 39.4159241, "lng": 20.2308673, "name": "Δεή"}, {"lat": 37.8826914, "lng": 21.1092857, "name": "Melissa"}, {"lat": 36.9311113, "lng": 24.6913708, "name": "Βαθή"}, {"lat": 35.5142359, "lng": 24.0057023, "name": "Nea Chora beach"}, {"lat": 35.2920265, "lng": 25.4416171, "name": ""}, {"lat": 35.2919886, "lng": 25.446655, "name": ""}, {"lat": 37.3887643, "lng": 24.39679, "name": ""}, {"lat": 37.4450713, "lng": 24.4267168, "name": "Σκινάρι"}, {"lat": 37.3998432, "lng": 24.3992069, "name": "Επισκοπή"}, {"lat": 37.4152456, "lng": 24.3830267, "name": ""}, {"lat": 37.3966854, "lng": 24.4575767, "name": "Άγιος Στέφανος"}, {"lat": 37.3889036, "lng": 24.4533138, "name": "Αόσα"}, {"lat": 37.3853364, "lng": 24.4540336, "name": "Κουρή"}, {"lat": 37.3826311, "lng": 24.4535736, "name": "Ζογκάκι"}, {"lat": 37.3953761, "lng": 24.4632437, "name": "Λαγκούση"}, {"lat": 37.3983501, "lng": 24.4663162, "name": "Αγκορίτσα"}, {"lat": 37.399336, "lng": 24.469627, "name": "Άγιος Ιωάννης"}, {"lat": 37.3962429, "lng": 24.4728784, "name": "Βασιλικό"}, {"lat": 38.067603, "lng": 20.7686018, "name": "Καμίνια"}, {"lat": 38.1612945, "lng": 20.4277896, "name": "Μεγας Λακος Megas Lakos"}, {"lat": 38.2606645, "lng": 20.6750068, "name": "Αντίσαμος"}, {"lat": 37.3669591, "lng": 26.7259468, "name": ""}, {"lat": 35.2364725, "lng": 23.5956743, "name": "Κριός"}, {"lat": 36.3488904, "lng": 25.3930936, "name": "Κόκκινη Παραλία"}, {"lat": 36.6876655, "lng": 23.038497, "name": ""}, {"lat": 36.2222625, "lng": 27.6046378, "name": ""}, {"lat": 37.1800775, "lng": 25.5534348, "name": ""}, {"lat": 39.7435074, "lng": 19.9338657, "name": "Παραλία Καλάμι"}, {"lat": 39.7390015, "lng": 19.931705, "name": "Galiskari Beach"}, {"lat": 39.7363033, "lng": 19.9295354, "name": "Agni Beach"}, {"lat": 39.7302758, "lng": 19.919264, "name": "Κρουζερή"}, {"lat": 39.7284083, "lng": 19.9142377, "name": "Kaminaki Beach"}, {"lat": 39.7919709, "lng": 19.9084725, "name": ""}, {"lat": 39.7881543, "lng": 19.9116468, "name": "Imerolia Beach"}, {"lat": 39.7937759, "lng": 19.7057208, "name": "Παραλία Σιδάρι"}, {"lat": 39.7913313, "lng": 19.7095958, "name": ""}, {"lat": 39.3349511, "lng": 22.9355486, "name": ""}, {"lat": 39.7887535, "lng": 19.918128, "name": "Kalamionas Beach"}, {"lat": 39.7896257, "lng": 19.9255299, "name": "Karavi Beach"}, {"lat": 39.7937019, "lng": 19.9204611, "name": "Kanoni Beach"}, {"lat": 38.3805836, "lng": 20.7176766, "name": "Παραλία Μνήματα"}, {"lat": 38.3389545, "lng": 20.7385243, "name": "Παραλία Καμίνια"}, {"lat": 35.5130111, "lng": 23.9902381, "name": "Χρυσή Ακτή"}, {"lat": 35.5193885, "lng": 23.907676, "name": ""}, {"lat": 37.8199195, "lng": 23.80962, "name": "Παραλία Βάρκιζας"}, {"lat": 35.203202, "lng": 26.1135165, "name": ""}, {"lat": 35.2545883, "lng": 26.2651641, "name": "Παραλία του Βάι"}, {"lat": 35.2940054, "lng": 25.4300889, "name": ""}, {"lat": 35.2920115, "lng": 25.439808, "name": ""}, {"lat": 35.2922071, "lng": 25.444206, "name": ""}, {"lat": 37.0414293, "lng": 25.0752028, "name": "Σιφνέικο"}, {"lat": 35.229598, "lng": 23.9570292, "name": ""}, {"lat": 35.5202255, "lng": 23.9247021, "name": "Παραλία Αγία Μαρίνα"}, {"lat": 35.5154141, "lng": 23.9460645, "name": ""}, {"lat": 35.5130918, "lng": 23.9738122, "name": "Sunset Beach"}, {"lat": 35.5142769, "lng": 23.9786688, "name": "Παραλία Αγίων Αποστόλων"}, {"lat": 35.514105, "lng": 23.9832079, "name": "Eastern Gulf"}, {"lat": 35.0057373, "lng": 25.7387546, "name": ""}, {"lat": 35.0091817, "lng": 25.7487746, "name": ""}, {"lat": 35.0046437, "lng": 25.7624291, "name": ""}, {"lat": 34.9999649, "lng": 25.8040405, "name": ""}, {"lat": 37.7138273, "lng": 27.0567487, "name": ""}, {"lat": 36.4658684, "lng": 27.3046718, "name": "Plaka"}, {"lat": 36.4776952, "lng": 27.3517199, "name": "Skafi"}, {"lat": 36.9363627, "lng": 25.4718394, "name": "Παραλία Καλαντός"}, {"lat": 37.1367024, "lng": 24.4626766, "name": "Γάνεμα"}, {"lat": 35.2333224, "lng": 23.6345965, "name": "Gramméno Beach"}, {"lat": 36.6928214, "lng": 22.3889267, "name": "Οίτυλο"}, {"lat": 34.9860569, "lng": 24.7493792, "name": "Κόκκινη Άμμος"}, {"lat": 40.5010372, "lng": 22.87632, "name": ""}, {"lat": 40.2423307, "lng": 23.7267146, "name": "Τρανή Αμμούδα"}, {"lat": 40.5765629, "lng": 22.9432831, "name": "Πλαζ Αρετσούς"}, {"lat": 35.5880033, "lng": 27.1786531, "name": "Κυρά Παναγιά"}, {"lat": 35.4769312, "lng": 27.1969866, "name": "Amopi"}, {"lat": 37.5772538, "lng": 23.3899416, "name": "Παραλία Νισάκι"}, {"lat": 37.5504967, "lng": 23.3667469, "name": ""}, {"lat": 37.9139131, "lng": 23.0083329, "name": "Κρυφή"}, {"lat": 40.3951543, "lng": 25.5803084, "name": "Παχιά Άμμος"}, {"lat": 39.4294273, "lng": 19.9272286, "name": "Issos Beach"}, {"lat": 39.1866114, "lng": 23.5081111, "name": "Ξάνεμο"}, {"lat": 40.0703359, "lng": 22.5666678, "name": "ΚΑΑΥ Λεπτοκαρυάς"}, {"lat": 36.9316729, "lng": 25.6023082, "name": "Άμμος"}, {"lat": 36.934191, "lng": 25.6137228, "name": "Φοίνικας"}, {"lat": 36.944874, "lng": 25.6219026, "name": "Πόρι"}, {"lat": 36.9360374, "lng": 25.6163881, "name": "Φανός"}, {"lat": 35.2514164, "lng": 26.2671689, "name": "Ψιλή Άμμος"}, {"lat": 39.6440376, "lng": 19.9234242, "name": "Μαΐστρος"}, {"lat": 39.6421771, "lng": 19.9207561, "name": "Τραμουντάνα"}, {"lat": 39.6408968, "lng": 19.9182424, "name": ""}, {"lat": 39.6398507, "lng": 19.9180244, "name": ""}, {"lat": 34.9386, "lng": 26.1268625, "name": ""}, {"lat": 34.9405059, "lng": 26.1265468, "name": ""}, {"lat": 34.9353781, "lng": 26.1260985, "name": ""}, {"lat": 34.9317407, "lng": 26.1359492, "name": ""}, {"lat": 34.9297538, "lng": 26.1363315, "name": ""}, {"lat": 34.9325471, "lng": 26.1344656, "name": ""}, {"lat": 34.9285063, "lng": 26.1362435, "name": ""}, {"lat": 34.9289108, "lng": 26.1359038, "name": ""}, {"lat": 34.9277268, "lng": 26.1363544, "name": ""}, {"lat": 34.9448536, "lng": 26.1435491, "name": ""}, {"lat": 34.9424525, "lng": 26.1545109, "name": ""}, {"lat": 34.9395864, "lng": 26.1564472, "name": ""}, {"lat": 34.9455596, "lng": 26.1408646, "name": ""}, {"lat": 37.3715032, "lng": 26.7246327, "name": ""}, {"lat": 37.3695701, "lng": 26.7273451, "name": ""}, {"lat": 38.7571261, "lng": 20.7679554, "name": "Φτέρη"}, {"lat": 39.401191, "lng": 20.2330534, "name": ""}, {"lat": 39.3986647, "lng": 20.2338338, "name": "Μουρτεμένο"}, {"lat": 35.5004564, "lng": 23.6477677, "name": "Μαύρος Μώλος"}, {"lat": 35.8975207, "lng": 27.2364509, "name": "Alimounda"}, {"lat": 35.8402918, "lng": 27.2312679, "name": ""}, {"lat": 35.838169, "lng": 27.2142861, "name": ""}, {"lat": 39.2099172, "lng": 23.3332216, "name": "Μουρτιάς"}, {"lat": 39.2371454, "lng": 23.3156303, "name": "Πάλτση"}, {"lat": 39.2021387, "lng": 23.3374932, "name": "Λύρη"}, {"lat": 39.1428027, "lng": 23.3063967, "name": "Καστρί"}, {"lat": 37.7228368, "lng": 23.9392508, "name": "Παραλία Αναβύσσου"}, {"lat": 37.7036895, "lng": 23.9392696, "name": "Θυμάρι"}, {"lat": 37.9045871, "lng": 20.7088025, "name": "Madrakia Beach"}, {"lat": 37.8782186, "lng": 20.7259814, "name": "Μακρύς Γιαλός"}, {"lat": 37.9074661, "lng": 20.7056938, "name": "Agios Nikolaos-Volimes beach"}, {"lat": 37.867901, "lng": 20.7350922, "name": "Xigia"}, {"lat": 37.8215955, "lng": 20.8641088, "name": ""}, {"lat": 37.6845381, "lng": 20.8361077, "name": "Keri beach"}, {"lat": 37.6710657, "lng": 20.850186, "name": "Παραλία Μαραθιά"}, {"lat": 34.9837927, "lng": 25.4976323, "name": ""}, {"lat": 35.1977623, "lng": 26.2774464, "name": "Chiona Beach"}, {"lat": 35.2058135, "lng": 26.2723027, "name": "Kouremenos Beach"}, {"lat": 37.8501681, "lng": 20.7546223, "name": ""}, {"lat": 37.7270265, "lng": 20.9899034, "name": "St. Nicholas Beach"}, {"lat": 37.7303852, "lng": 20.9858532, "name": "Πλάκα/Περιβολάκια"}, {"lat": 37.7335535, "lng": 20.9759629, "name": "Banana Beach"}, {"lat": 37.8171785, "lng": 20.8727853, "name": ""}, {"lat": 37.737111, "lng": 20.908654, "name": "Kalamaki Beach"}, {"lat": 37.7125219, "lng": 20.859589, "name": ""}, {"lat": 37.7167008, "lng": 20.862195, "name": ""}, {"lat": 37.7367756, "lng": 20.9051544, "name": ""}, {"lat": 37.8223968, "lng": 20.6346395, "name": "Πόρτο Βρώμη"}, {"lat": 37.8407359, "lng": 20.7729801, "name": ""}, {"lat": 37.8428157, "lng": 20.7677644, "name": "Αλυκές"}, {"lat": 37.8447623, "lng": 20.76369, "name": "Alykes beach"}, {"lat": 40.0665943, "lng": 23.336971, "name": ""}, {"lat": 40.10271, "lng": 23.3071514, "name": "Μπούσουλας"}, {"lat": 40.1127591, "lng": 23.3136168, "name": ""}, {"lat": 38.3857372, "lng": 20.7318844, "name": "Παραλία Γιδάκι"}, {"lat": 38.3846559, "lng": 20.7232181, "name": "Παραλία Σκίνος"}, {"lat": 38.3717918, "lng": 20.7417731, "name": "Παραλία Φιλιατρό"}, {"lat": 38.3707936, "lng": 20.7027165, "name": "Παραλία Δεξά"}, {"lat": 37.9091196, "lng": 23.712393, "name": "Α’ Πλαζ Αλίμου «Στολίδι»"}, {"lat": 40.0736026, "lng": 22.5673307, "name": ""}, {"lat": 35.1527284, "lng": 24.4804011, "name": "Παραλία Δυνόνησος"}, {"lat": 35.4103165, "lng": 24.6382665, "name": "Spilies Beach"}, {"lat": 35.4138246, "lng": 24.6452996, "name": "Geropotamos Beach"}, {"lat": 35.3324278, "lng": 24.2792518, "name": ""}, {"lat": 40.1934957, "lng": 23.8082745, "name": "Παραλία Καρύδι"}, {"lat": 39.1638576, "lng": 23.3338657, "name": "Βρωμονέρι"}, {"lat": 35.021918, "lng": 25.8763487, "name": "Αγία Φωτιά"}, {"lat": 38.0127134, "lng": 24.4212736, "name": ""}, {"lat": 35.0183901, "lng": 25.858395, "name": ""}, {"lat": 37.8733071, "lng": 23.732154, "name": "Παραλία Γλυφάδας Ακτή Α"}, {"lat": 38.1761333, "lng": 21.3667916, "name": "Παραλία Γιανισκάρη"}, {"lat": 37.654111, "lng": 24.0245454, "name": "Sounion Beach"}, {"lat": 37.7283791, "lng": 20.8828787, "name": "Laganas beach"}, {"lat": 40.2491225, "lng": 23.2488978, "name": ""}, {"lat": 40.2442768, "lng": 23.2647433, "name": ""}, {"lat": 38.3444024, "lng": 21.5954666, "name": ""}, {"lat": 38.3348224, "lng": 21.581305, "name": ""}, {"lat": 38.3253662, "lng": 21.4194283, "name": "Παραλία Τουρλίδας"}, {"lat": 37.794448, "lng": 26.9847779, "name": "Λιβαδάκι"}, {"lat": 37.7652588, "lng": 26.9647415, "name": "Γάγγου"}, {"lat": 37.8021978, "lng": 26.8545151, "name": "Τσάμπου"}, {"lat": 37.7082807, "lng": 26.6800192, "name": "Παραλία Κάμπος Μαραθοκάμπου"}, {"lat": 37.7098092, "lng": 26.6919325, "name": "Tripiti"}, {"lat": 37.7696414, "lng": 26.6354355, "name": "Μεγάλο Σεϊτάνι"}, {"lat": 40.5118095, "lng": 23.8278636, "name": "Παραλία Στρατώνι"}, {"lat": 37.7827738, "lng": 26.8763254, "name": "Λεμονάκια"}, {"lat": 37.7605888, "lng": 26.948064, "name": ""}, {"lat": 39.7831304, "lng": 19.947964, "name": "Τζουφάκα"}, {"lat": 39.8182734, "lng": 19.8562254, "name": "Παραλία Γιαλισκάρι"}, {"lat": 39.7767142, "lng": 19.9546849, "name": "Άκολη"}, {"lat": 39.8201929, "lng": 19.8457526, "name": ""}, {"lat": 39.7799223, "lng": 19.9401097, "name": "Παραλία Αυλάκι"}, {"lat": 39.7799936, "lng": 19.9487067, "name": ""}, {"lat": 39.7734599, "lng": 19.9553668, "name": "Βρωμολίμνη"}, {"lat": 39.8035051, "lng": 19.8795192, "name": ""}, {"lat": 39.792962, "lng": 19.9192759, "name": ""}, {"lat": 39.8157213, "lng": 19.8611016, "name": "Agios Spiridon Beach"}, {"lat": 39.8157153, "lng": 19.8655243, "name": "Agios Spyridon Beach"}, {"lat": 39.7848234, "lng": 19.9468704, "name": ""}, {"lat": 39.7856159, "lng": 19.944811, "name": "Βραχλή"}, {"lat": 39.8156017, "lng": 19.8695313, "name": ""}, {"lat": 39.7823393, "lng": 19.9431081, "name": ""}, {"lat": 39.7621814, "lng": 19.9460359, "name": ""}, {"lat": 39.7542593, "lng": 19.941731, "name": "Παραλία Κερασιά"}, {"lat": 39.7556039, "lng": 19.9451616, "name": ""}, {"lat": 39.7480003, "lng": 19.9404941, "name": ""}, {"lat": 39.7637352, "lng": 19.9494427, "name": ""}, {"lat": 38.8677654, "lng": 21.1749763, "name": "Παραλία Αμφιλοχίας"}, {"lat": 39.6502648, "lng": 19.8607997, "name": "Παραλία Κοντοκαλίου"}, {"lat": 39.6574958, "lng": 19.8442704, "name": ""}, {"lat": 39.6489355, "lng": 19.8607803, "name": ""}, {"lat": 39.6510508, "lng": 19.8607655, "name": ""}, {"lat": 39.6565058, "lng": 19.8443959, "name": ""}, {"lat": 36.6888917, "lng": 23.0361633, "name": ""}, {"lat": 38.8726261, "lng": 21.1592415, "name": ""}, {"lat": 37.739834, "lng": 20.9605807, "name": "Πόρτο Ζόρο"}, {"lat": 37.9149271, "lng": 24.6978098, "name": "Πίσω Λιμνιώνας"}, {"lat": 39.5836682, "lng": 19.8190032, "name": "Κοντογιαλός"}, {"lat": 39.1612378, "lng": 20.2231394, "name": "Βρίκα"}, {"lat": 39.1419508, "lng": 20.2478597, "name": "Φύκι"}, {"lat": 39.1577702, "lng": 20.2276082, "name": "Βουτούμι"}, {"lat": 39.1487813, "lng": 20.2387109, "name": "Μικρό Αγνί"}, {"lat": 39.1549744, "lng": 20.2303687, "name": "Πλάκκα"}, {"lat": 39.1530271, "lng": 20.2325948, "name": "Αγριαπιδιά"}, {"lat": 39.1506676, "lng": 20.2380431, "name": "Μεγάλο Αγνί"}, {"lat": 39.1601263, "lng": 20.2254168, "name": "Μεσαβρίκα"}, {"lat": 39.1514437, "lng": 20.2176359, "name": "Ροδοβάνι"}, {"lat": 39.1428138, "lng": 20.2351613, "name": "Καλαμίτσα"}, {"lat": 39.1414122, "lng": 20.2393487, "name": "Σαρακίνικο"}, {"lat": 39.1455258, "lng": 20.2421788, "name": "Σκίδι"}, {"lat": 36.2551335, "lng": 28.1687143, "name": ""}, {"lat": 35.3735605, "lng": 24.5389593, "name": ""}, {"lat": 37.9744027, "lng": 23.2398623, "name": "Παραλία Κινέτας"}, {"lat": 37.4488552, "lng": 25.3298089, "name": "Αγία Άννα"}, {"lat": 37.447405, "lng": 25.3278536, "name": ""}, {"lat": 37.7358889, "lng": 23.9046151, "name": "Παραλία Μαύρο Λιθάρι"}, {"lat": 37.9651756, "lng": 22.8023083, "name": ""}, {"lat": 39.8404241, "lng": 25.0787203, "name": "παραλία Θάνους"}, {"lat": 39.8374257, "lng": 25.0627419, "name": ""}, {"lat": 39.8412333, "lng": 25.0665278, "name": "παραλία Στίβι ή Πλαγίσος Μώλος"}, {"lat": 39.8566832, "lng": 25.061054, "name": "παραλία Πλατύ"}, {"lat": 39.9769273, "lng": 25.0499551, "name": ""}, {"lat": 39.9840166, "lng": 25.0507798, "name": ""}, {"lat": 39.9673253, "lng": 25.3287865, "name": ""}, {"lat": 39.9903082, "lng": 25.1697997, "name": "Κατάλακκο"}, {"lat": 39.9375234, "lng": 25.0519698, "name": "Karvounolaka Beach"}, {"lat": 35.097719, "lng": 24.6925716, "name": ""}, {"lat": 35.0974268, "lng": 24.6953486, "name": ""}, {"lat": 34.9938727, "lng": 24.7492222, "name": ""}, {"lat": 35.0868413, "lng": 24.7309645, "name": ""}, {"lat": 35.0792591, "lng": 24.7417341, "name": "Katalyki"}, {"lat": 38.7762429, "lng": 20.5994122, "name": "Κάθισμα"}, {"lat": 38.7867848, "lng": 20.6074688, "name": "Μύλος"}, {"lat": 38.5068003, "lng": 21.0316664, "name": "Μαραθιάς"}, {"lat": 35.3240264, "lng": 25.3894846, "name": ""}, {"lat": 35.3272097, "lng": 25.3869104, "name": ""}, {"lat": 35.2642876, "lng": 25.7224721, "name": "Σχίσμα"}, {"lat": 35.1270539, "lng": 25.7334318, "name": "Αγιος Παντελεήμονας"}, {"lat": 39.8516359, "lng": 25.1536952, "name": ""}, {"lat": 39.8076954, "lng": 25.1537545, "name": ""}, {"lat": 39.8499136, "lng": 25.1206159, "name": "παραλία Εβγάτης"}, {"lat": 39.846842, "lng": 25.1053336, "name": ""}, {"lat": 39.9987617, "lng": 25.1510676, "name": ""}, {"lat": 40.0017713, "lng": 25.1467381, "name": ""}, {"lat": 39.993625, "lng": 25.1499267, "name": "Γομάτι"}, {"lat": 36.4434958, "lng": 28.2303644, "name": ""}, {"lat": 40.0033518, "lng": 25.1463011, "name": ""}, {"lat": 40.005017, "lng": 25.1427925, "name": ""}, {"lat": 35.2016045, "lng": 24.1076711, "name": "Παραλια Γλυκά Νερά"}, {"lat": 39.8329377, "lng": 25.2664583, "name": ""}, {"lat": 39.8288278, "lng": 25.2839526, "name": "Parthenomythos Beach"}, {"lat": 35.0025494, "lng": 25.5830661, "name": ""}, {"lat": 38.7775658, "lng": 22.7809308, "name": ""}, {"lat": 38.7779514, "lng": 22.774139, "name": ""}, {"lat": 38.7788807, "lng": 22.7836818, "name": ""}, {"lat": 38.7830611, "lng": 22.7885143, "name": ""}, {"lat": 35.3682422, "lng": 24.4789009, "name": ""}, {"lat": 35.3770318, "lng": 24.5576583, "name": ""}, {"lat": 35.3689513, "lng": 24.503394, "name": "Παραλία Ρεθύμνου"}, {"lat": 35.3644253, "lng": 24.4579043, "name": ""}, {"lat": 39.180778, "lng": 23.2226692, "name": "Βαθιά Σπηλιά"}, {"lat": 39.2628306, "lng": 23.294112, "name": ""}, {"lat": 39.2603628, "lng": 23.2969575, "name": "Μελανή"}, {"lat": 39.2651472, "lng": 23.2920948, "name": "Ποτιστικά"}, {"lat": 39.3753066, "lng": 23.2030585, "name": "Μυλοπόταμος"}, {"lat": 35.1870119, "lng": 25.7158131, "name": "Άμμος"}, {"lat": 37.4138128, "lng": 25.3442358, "name": "Πλατύς Γιαλός"}, {"lat": 34.9263657, "lng": 24.9604815, "name": "Τραφουλάς"}, {"lat": 34.9327474, "lng": 24.9391409, "name": ""}, {"lat": 38.111374, "lng": 20.6367135, "name": "Λουρδάτα"}, {"lat": 34.9343506, "lng": 24.9829211, "name": "Τρυπητή"}, {"lat": 34.9520751, "lng": 24.7547254, "name": "Βαθύ"}, {"lat": 39.997912, "lng": 25.2150047, "name": "Trygi Beach"}, {"lat": 39.9990894, "lng": 25.2189021, "name": "Trygi Beach"}, {"lat": 39.8854274, "lng": 25.062399, "name": "Ρηχά νερά"}, {"lat": 39.8727095, "lng": 25.060674, "name": "Τουρκικος Γιαλος"}, {"lat": 39.9563774, "lng": 25.0458009, "name": ""}, {"lat": 39.8502344, "lng": 25.1115355, "name": ""}, {"lat": 40.0130882, "lng": 25.3709136, "name": ""}, {"lat": 40.0070076, "lng": 25.3932826, "name": ""}, {"lat": 40.0101661, "lng": 25.3900534, "name": ""}, {"lat": 40.002674, "lng": 25.3714141, "name": "Zematas Beach"}, {"lat": 39.9851275, "lng": 25.351317, "name": "Νεφτίνα"}, {"lat": 40.0141535, "lng": 25.3822494, "name": ""}, {"lat": 39.96733, "lng": 25.3452091, "name": "Σαράβαρη"}, {"lat": 40.0137542, "lng": 25.4352909, "name": "Πλάκα"}, {"lat": 39.9422458, "lng": 25.2972947, "name": ""}, {"lat": 35.1890425, "lng": 25.7211475, "name": "Κιτροπλατεία"}, {"lat": 39.82166, "lng": 25.2938916, "name": "Skidi Beach"}, {"lat": 39.8398308, "lng": 25.263446, "name": "Χαβούλι"}, {"lat": 38.0193776, "lng": 24.0118778, "name": "Πλαζ Ραφήνας"}, {"lat": 39.8174852, "lng": 25.1480068, "name": "Κόκκινα"}, {"lat": 39.7994737, "lng": 25.1591727, "name": ""}, {"lat": 39.7994456, "lng": 25.1621356, "name": ""}, {"lat": 39.8229696, "lng": 25.2064175, "name": ""}, {"lat": 39.8039955, "lng": 25.2243756, "name": ""}, {"lat": 39.9231745, "lng": 25.3841012, "name": ""}, {"lat": 39.7177033, "lng": 19.6735968, "name": "Παραλία Άγιος Γεώργιος Πάγων"}, {"lat": 38.0796222, "lng": 20.8016348, "name": ""}, {"lat": 35.1256037, "lng": 25.7449068, "name": "Βούλισμα"}, {"lat": 35.1270977, "lng": 25.7413662, "name": "Golden Beach"}, {"lat": 37.3785684, "lng": 21.6811783, "name": ""}, {"lat": 37.3698804, "lng": 21.6850027, "name": ""}, {"lat": 35.3341585, "lng": 25.2865129, "name": ""}, {"lat": 35.3342726, "lng": 25.2976132, "name": ""}, {"lat": 35.3339379, "lng": 25.293994, "name": ""}, {"lat": 35.3349836, "lng": 25.3156337, "name": ""}, {"lat": 35.3351229, "lng": 25.3106121, "name": ""}, {"lat": 35.3348471, "lng": 25.2994598, "name": ""}, {"lat": 35.3348035, "lng": 25.3181977, "name": ""}, {"lat": 35.3352783, "lng": 25.3235878, "name": ""}, {"lat": 39.6719677, "lng": 19.7031842, "name": "Παραλία Άγιος Σπυρίδωνας"}, {"lat": 36.3474046, "lng": 25.7959166, "name": "Ρούκουνας"}, {"lat": 36.3445804, "lng": 25.776936, "name": "Κλεισίδι"}, {"lat": 36.3848249, "lng": 25.7974233, "name": ""}, {"lat": 35.3667682, "lng": 24.2608861, "name": "Καλυβάκι"}, {"lat": 35.3620779, "lng": 24.2644343, "name": "Γεωργιούπολη"}, {"lat": 36.8293538, "lng": 25.8659666, "name": ""}, {"lat": 36.8269342, "lng": 25.8595859, "name": ""}, {"lat": 36.8098838, "lng": 25.8458926, "name": ""}, {"lat": 38.3024497, "lng": 21.2149852, "name": "Λούρος"}, {"lat": 38.6551527, "lng": 20.9899577, "name": ""}, {"lat": 38.6539745, "lng": 20.9896056, "name": ""}, {"lat": 37.5293116, "lng": 22.7312544, "name": ""}, {"lat": 39.6737436, "lng": 19.7295083, "name": "Παραλία Λιαπάδων"}, {"lat": 39.6705838, "lng": 19.727786, "name": "Ροβινιά"}, {"lat": 37.692035, "lng": 21.3166905, "name": "Παραλία Λεβεντοχωρίου"}, {"lat": 39.7158441, "lng": 19.8680481, "name": "Barbati Beach"}, {"lat": 35.1997451, "lng": 24.0724425, "name": "Finikas Beach-Παραλία Φοίνικας"}, {"lat": 35.1994911, "lng": 24.0787663, "name": ""}, {"lat": 35.1966247, "lng": 24.0581504, "name": "Παραλία Μάρμαρα"}, {"lat": 37.0000983, "lng": 21.9615173, "name": ""}, {"lat": 39.7581014, "lng": 19.6427302, "name": "Άγιος Στέφανος"}, {"lat": 36.0952409, "lng": 28.0862937, "name": "Megali Paralia"}, {"lat": 36.1060266, "lng": 27.7360454, "name": "Παραλία Φούρνοι"}, {"lat": 39.9445562, "lng": 25.2786234, "name": "Παραλία Κότσινα"}, {"lat": 39.6209472, "lng": 19.7557527, "name": "Παραλία Γυαλί"}, {"lat": 35.4981017, "lng": 23.659469, "name": "Παραλία Τελώνιο"}, {"lat": 39.4412346, "lng": 23.1366506, "name": "Άγιοι Σαράντα"}, {"lat": 39.4172877, "lng": 23.1624296, "name": "Άγιος Ιωάννης"}, {"lat": 39.3640688, "lng": 23.2074768, "name": "Λημνιώνας"}, {"lat": 39.3758436, "lng": 23.2025098, "name": "Μυλοπόταμος"}, {"lat": 39.4035798, "lng": 23.1813418, "name": "Νταμούχαρη"}, {"lat": 39.4096681, "lng": 23.169437, "name": "Παπά Νερό"}, {"lat": 39.4230198, "lng": 23.1566047, "name": "Πλάκα"}, {"lat": 39.3897485, "lng": 23.1935068, "name": "Φακίστρα"}, {"lat": 39.4483945, "lng": 23.1315243, "name": "Χορευτό"}, {"lat": 39.4541918, "lng": 23.1241992, "name": "Χορευτό"}, {"lat": 39.4611225, "lng": 23.1163033, "name": "Παρίσαινα"}, {"lat": 39.4376323, "lng": 23.1408516, "name": "Παραλία Μπριάνου"}, {"lat": 39.4760601, "lng": 23.1095549, "name": "παραλία Ελίτσα"}, {"lat": 39.4687186, "lng": 23.111851, "name": "Παραλία Ανάληψης"}, {"lat": 39.4668333, "lng": 23.113212, "name": "Παραλία Τουρκοπηγής"}, {"lat": 36.5741924, "lng": 26.3752913, "name": "Πλάκες"}, {"lat": 36.5137652, "lng": 26.3164151, "name": "Βάτσες"}, {"lat": 36.5281549, "lng": 26.3533334, "name": "Άγιος Κωσταντίνος"}, {"lat": 36.5423986, "lng": 26.3430366, "name": "Λιβάδι"}, {"lat": 35.6646055, "lng": 23.7678649, "name": "Diktina Beach"}, {"lat": 35.5986701, "lng": 23.7107422, "name": "Aghios Pavlos Beach"}, {"lat": 35.2233432, "lng": 23.9186281, "name": ""}, {"lat": 35.2232055, "lng": 23.9344017, "name": ""}, {"lat": 35.2271232, "lng": 23.9128378, "name": "Παραλία Δώματα"}, {"lat": 39.6537085, "lng": 19.8454166, "name": ""}, {"lat": 38.0641964, "lng": 20.7779234, "name": "Παραλία Καμίνια"}, {"lat": 38.0664365, "lng": 20.7536069, "name": "Παραλία Αγία Βαρβάρα"}, {"lat": 38.0639608, "lng": 20.7497026, "name": "Κατελειός"}, {"lat": 40.7062727, "lng": 23.7022651, "name": "παραλία Νέων Βρασνών"}, {"lat": 36.7661194, "lng": 21.8422127, "name": "Γλυφάδα"}, {"lat": 36.7660308, "lng": 21.841071, "name": "Γλυφάδα"}, {"lat": 36.7747181, "lng": 21.9326279, "name": "Κρυονέρι"}, {"lat": 36.771901, "lng": 21.8375111, "name": "Μικρό Μαράθι"}, {"lat": 36.7688952, "lng": 21.8390492, "name": "Μεγάλο Μαράθι"}, {"lat": 36.7542985, "lng": 21.8554997, "name": "Τσαπί"}, {"lat": 37.6583347, "lng": 24.3141513, "name": ""}, {"lat": 37.6752497, "lng": 24.3506451, "name": "Οτζιάς"}, {"lat": 37.6463776, "lng": 24.4012312, "name": "Σπαθί"}, {"lat": 37.5998011, "lng": 24.276649, "name": "Πoίσσες"}, {"lat": 37.61843, "lng": 24.3916868, "name": "Ψαθί"}, {"lat": 37.6374668, "lng": 24.4011334, "name": "Καληδονύχι"}, {"lat": 37.6662876, "lng": 24.3282803, "name": ""}, {"lat": 37.6623765, "lng": 24.3212918, "name": "Γιαλισκάρι"}, {"lat": 37.6262901, "lng": 24.39472, "name": "Συκαμιά"}, {"lat": 37.5595577, "lng": 24.3298934, "name": "Μικρές Πόλες"}, {"lat": 37.5531161, "lng": 24.276243, "name": "Λιπαρό"}, {"lat": 37.5603039, "lng": 24.3323721, "name": "Μεγάλες Πόλες"}, {"lat": 37.5398372, "lng": 24.2762985, "name": "Πετρούσα"}, {"lat": 37.6091402, "lng": 24.3853646, "name": "Ορκός"}, {"lat": 38.0564246, "lng": 22.9109276, "name": "Παραλία Μυλοκοπή"}, {"lat": 39.6275503, "lng": 20.1780544, "name": "Παραλία Σαγιάδας"}, {"lat": 39.5462137, "lng": 19.8489462, "name": "Παραλία Αγίου Γορδίου"}, {"lat": 39.5022332, "lng": 19.8528122, "name": "Paramonas"}, {"lat": 39.4043542, "lng": 20.098979, "name": "Capo di Corfu"}, {"lat": 39.6663283, "lng": 19.7245592, "name": ""}, {"lat": 37.4955037, "lng": 22.9897813, "name": ""}, {"lat": 35.4142155, "lng": 24.7833432, "name": ""}, {"lat": 35.4170431, "lng": 24.7852581, "name": ""}, {"lat": 35.413272, "lng": 24.7832185, "name": ""}, {"lat": 39.5162605, "lng": 20.2061977, "name": "Παραλία Δρέπανο"}, {"lat": 35.2598836, "lng": 25.7517672, "name": "Κολοκύθα"}, {"lat": 37.6822797, "lng": 26.7633357, "name": ""}, {"lat": 35.3086826, "lng": 25.5180302, "name": "Palm Bay Beach"}, {"lat": 35.200807, "lng": 24.080624, "name": ""}, {"lat": 35.4186836, "lng": 24.6921875, "name": ""}, {"lat": 35.4187326, "lng": 24.6913027, "name": ""}, {"lat": 39.3933885, "lng": 20.2682139, "name": "Μέγα Ντράφι"}, {"lat": 39.3964265, "lng": 20.2631388, "name": "Μικρή Άμμος"}, {"lat": 39.3981728, "lng": 20.2569307, "name": "Μέγα Άμμος"}, {"lat": 36.2174685, "lng": 27.5714197, "name": ""}, {"lat": 38.6361941, "lng": 20.5579282, "name": "Εγκρεμνοί"}, {"lat": 38.6009191, "lng": 20.5499586, "name": "Πόρτο Κάτσικι"}, {"lat": 38.7886861, "lng": 20.7508066, "name": ""}, {"lat": 38.793244, "lng": 20.7399512, "name": "Ασπρογιαλός"}, {"lat": 38.7865793, "lng": 20.7525854, "name": "Λυγιά"}, {"lat": 38.763497, "lng": 20.7888545, "name": "Vathiavali Beach"}, {"lat": 38.7579389, "lng": 20.7635229, "name": ""}, {"lat": 38.3475387, "lng": 22.3586838, "name": "Άγιος Βασίλειος"}, {"lat": 36.7851996, "lng": 21.9441341, "name": "Μεμί"}, {"lat": 36.7922053, "lng": 21.9567337, "name": "Ζάγκα"}, {"lat": 36.8032817, "lng": 21.821228, "name": "Λούτσα"}, {"lat": 36.8071038, "lng": 21.808654, "name": ""}, {"lat": 38.2872673, "lng": 22.5784705, "name": "Γυαλίν Άμμος"}, {"lat": 38.3899558, "lng": 22.4933083, "name": ""}, {"lat": 39.5460566, "lng": 24.9927133, "name": "παραλία Μουρούλια"}, {"lat": 39.5506692, "lng": 24.9937721, "name": ""}, {"lat": 39.5219106, "lng": 24.9758209, "name": "Άγιος Δημήτριος"}, {"lat": 39.5293709, "lng": 24.9785935, "name": "παραλία Άγιος Αντώνιος"}, {"lat": 38.6301914, "lng": 20.6009045, "name": "Βασιλική"}, {"lat": 38.6649314, "lng": 20.5576066, "name": "Γιαλός"}, {"lat": 39.8800227, "lng": 25.0605767, "name": "Ρωμαίικος Γυαλός"}, {"lat": 38.6053142, "lng": 20.6128087, "name": "Αγιοφύλλι"}, {"lat": 38.6023249, "lng": 20.6264151, "name": "Αμμούσα"}, {"lat": 38.6105805, "lng": 20.6560936, "name": "Αφτέλι"}, {"lat": 38.761629, "lng": 20.5936844, "name": "Αβάλι"}, {"lat": 37.9032909, "lng": 23.718277, "name": ""}, {"lat": 37.8497141, "lng": 23.7503359, "name": "Voula Beach"}, {"lat": 38.3358962, "lng": 20.410635, "name": "Αθέρας Port Atheras"}, {"lat": 36.9759156, "lng": 21.6576682, "name": "Άγιος Νικόλαος"}, {"lat": 37.0178375, "lng": 21.6202081, "name": "Βρωμονέρι"}, {"lat": 36.9998704, "lng": 21.6417902, "name": "Μάτι"}, {"lat": 36.9830403, "lng": 21.6536085, "name": "Ρωμανός"}, {"lat": 36.9730541, "lng": 21.6593009, "name": ""}, {"lat": 36.9665465, "lng": 21.6589409, "name": "Glossa Beach (nudist)"}, {"lat": 38.8338297, "lng": 20.6616893, "name": "Καμίνια"}, {"lat": 38.8081891, "lng": 20.631547, "name": "Πευκούλια"}, {"lat": 38.8193987, "lng": 20.6377483, "name": "Σκάλα Γιαλού"}, {"lat": 38.8315858, "lng": 20.6698745, "name": "Άι Γιάννης"}, {"lat": 38.8474115, "lng": 20.7207985, "name": "Αμμόγλωσσα"}, {"lat": 38.8493307, "lng": 20.7010491, "name": "Γύρα (Άννα)"}, {"lat": 38.8418765, "lng": 20.6806366, "name": "Άγιος Ιωάννης"}, {"lat": 38.8471062, "lng": 20.7180244, "name": "Κάστρο"}, {"lat": 38.6891258, "lng": 20.7460543, "name": "Ανατολική παραλία Σκορπιού"}, {"lat": 37.6308986, "lng": 26.0913137, "name": "Λιβάδι"}, {"lat": 37.6306361, "lng": 26.0974461, "name": "Μεσακτή"}, {"lat": 38.5597939, "lng": 20.9063232, "name": "Athiki"}, {"lat": 38.6112256, "lng": 20.9003871, "name": ""}, {"lat": 38.6086886, "lng": 20.8965463, "name": ""}, {"lat": 38.6000053, "lng": 20.8835503, "name": ""}, {"lat": 35.1462521, "lng": 26.2766079, "name": "Καρούμες"}, {"lat": 35.2215765, "lng": 26.2735359, "name": "Μαριδάτη"}, {"lat": 39.7965875, "lng": 19.6950962, "name": "Αποτρυπητή"}, {"lat": 39.7964082, "lng": 19.7552394, "name": "Αστρακερή"}, {"lat": 38.2816919, "lng": 21.75031, "name": "Πλάζ"}, {"lat": 39.7913876, "lng": 19.788883, "name": "Παραλία Ρόδας"}, {"lat": 39.5912854, "lng": 19.8078354, "name": "Παραλία Γλυφάδας"}, {"lat": 35.3538243, "lng": 24.2956165, "name": ""}, {"lat": 37.5170978, "lng": 22.9680973, "name": "Παραλία Κάντιας"}, {"lat": 37.5144768, "lng": 22.9795758, "name": ""}, {"lat": 39.0176564, "lng": 20.9129363, "name": ""}, {"lat": 40.3955918, "lng": 25.5936036, "name": ""}, {"lat": 39.3826799, "lng": 26.2239084, "name": ""}, {"lat": 39.3808442, "lng": 26.2197109, "name": ""}, {"lat": 37.3012983, "lng": 22.8296833, "name": ""}, {"lat": 37.2551141, "lng": 22.8547787, "name": "Τηγάνι"}, {"lat": 38.3115799, "lng": 21.7963833, "name": ""}, {"lat": 38.315572, "lng": 21.8072911, "name": ""}, {"lat": 38.3184841, "lng": 21.8151503, "name": ""}, {"lat": 38.3119193, "lng": 21.7808349, "name": ""}, {"lat": 38.3067138, "lng": 21.7776084, "name": ""}, {"lat": 38.2858001, "lng": 21.7601723, "name": ""}, {"lat": 40.3969345, "lng": 25.6063804, "name": "Βάτος"}, {"lat": 40.3944506, "lng": 25.5906917, "name": ""}, {"lat": 40.7345091, "lng": 24.7735125, "name": "Agios Ioannis"}, {"lat": 40.7505369, "lng": 24.7482007, "name": "Σαλιάρα"}, {"lat": 40.6056895, "lng": 24.721372, "name": "Θυμωνιά"}, {"lat": 40.6452361, "lng": 24.7671015, "name": "Παραδείσος"}, {"lat": 40.6046329, "lng": 24.7406911, "name": "Αλυκές"}, {"lat": 40.3262462, "lng": 23.9793535, "name": ""}, {"lat": 40.3292505, "lng": 23.9780325, "name": "Παραλία Ουρανούπολης"}, {"lat": 40.3246456, "lng": 23.9812678, "name": "Παραλία Ουρανούπολης"}, {"lat": 40.4084121, "lng": 25.6447879, "name": ""}, {"lat": 40.2379222, "lng": 22.5880636, "name": "Olympic Beach"}, {"lat": 40.6194272, "lng": 23.7748522, "name": ""}, {"lat": 40.5978752, "lng": 24.6920601, "name": "Λιβάδι"}, {"lat": 40.5979947, "lng": 24.6958107, "name": "Αρσανάς"}, {"lat": 40.3508365, "lng": 23.7320479, "name": "Παραλία Κάμπος (Πυργαδίκια)"}, {"lat": 40.3118836, "lng": 23.6973823, "name": ""}, {"lat": 39.9822636, "lng": 22.6458823, "name": ""}, {"lat": 38.155223, "lng": 21.5570671, "name": ""}, {"lat": 38.2878077, "lng": 21.7621224, "name": ""}, {"lat": 40.1996759, "lng": 23.7690428, "name": "Παραλία Λιβάρι"}, {"lat": 40.2929779, "lng": 23.6950262, "name": "Παραλία Σαλονικιού"}, {"lat": 40.2299274, "lng": 23.7463818, "name": "Παραλία Λαγονήσι"}, {"lat": 40.1918567, "lng": 23.8104797, "name": "Παραλία Μικρό Καρύδι"}, {"lat": 39.9994882, "lng": 23.8692832, "name": "Κρυφός Παράδεισος Παραλία Γυμνιστών"}, {"lat": 39.9834995, "lng": 23.8995875, "name": "Παραλία Τορώνης"}, {"lat": 39.9943871, "lng": 23.8903207, "name": "Παραλία"}, {"lat": 40.0031401, "lng": 23.8692717, "name": "Παραλία Αρετές"}, {"lat": 40.0414825, "lng": 23.9874749, "name": "Παραλία Συκιάς"}, {"lat": 39.9955052, "lng": 23.8795528, "name": "Παραλία Τριστινίκα"}, {"lat": 38.9501984, "lng": 23.0867987, "name": ""}, {"lat": 38.9093884, "lng": 23.0062054, "name": ""}, {"lat": 38.9409776, "lng": 23.0580148, "name": "Νησιώτισσα"}, {"lat": 38.83117, "lng": 22.8314491, "name": ""}, {"lat": 38.8227394, "lng": 22.8211333, "name": ""}, {"lat": 39.0143563, "lng": 23.3462854, "name": ""}, {"lat": 39.0128023, "lng": 23.3485843, "name": ""}, {"lat": 39.0099001, "lng": 23.3537706, "name": "Μαύρικας"}, {"lat": 38.9718897, "lng": 23.3833864, "name": "Παραλία Ψαροπούλι/Βασιλικών"}, {"lat": 38.9535079, "lng": 23.4217575, "name": ""}, {"lat": 38.9545153, "lng": 23.4177423, "name": "Παραλία Ροδάκι"}, {"lat": 38.9527543, "lng": 23.4286953, "name": "Παραλία τσιρμοκόκκαλα"}, {"lat": 38.9544818, "lng": 23.4126706, "name": "Παραλία Μουρτιάς"}, {"lat": 38.9497563, "lng": 23.4294574, "name": ""}, {"lat": 38.948511, "lng": 23.4297707, "name": ""}, {"lat": 38.9457774, "lng": 23.4311426, "name": ""}, {"lat": 38.9399655, "lng": 23.4326741, "name": ""}, {"lat": 38.9366986, "lng": 23.4278001, "name": "Παραλία Κοτσικιάς"}, {"lat": 38.9035423, "lng": 23.4278819, "name": "Παραλία Αχλαδίου (Φραγκάκη)"}, {"lat": 38.86199, "lng": 23.449688, "name": "Αγκάλη"}, {"lat": 38.838383, "lng": 23.4675812, "name": ""}, {"lat": 38.8026077, "lng": 23.5303903, "name": "Δαφνοπόταμος"}, {"lat": 38.778915, "lng": 23.5742753, "name": "Ατάλαντος"}, {"lat": 38.7657654, "lng": 23.5906196, "name": ""}, {"lat": 38.7532544, "lng": 23.6624725, "name": ""}, {"lat": 38.7537191, "lng": 23.6737441, "name": "Βαθυχάντακο"}, {"lat": 38.7513794, "lng": 23.669207, "name": "Παραλία Βλαχιάς"}, {"lat": 38.7532392, "lng": 23.6777377, "name": "Ποτάμι"}, {"lat": 38.752541, "lng": 23.6822778, "name": "Μακρύς Γιαλός"}, {"lat": 36.404086, "lng": 28.2285345, "name": ""}, {"lat": 36.3982793, "lng": 28.2323254, "name": ""}, {"lat": 40.0059674, "lng": 23.8691367, "name": "Μικρές Αρετές παραλία γυμνιστών"}, {"lat": 40.0133854, "lng": 23.8599072, "name": "Παραλία"}, {"lat": 40.0078904, "lng": 23.8673002, "name": "Παραλία"}, {"lat": 40.0103678, "lng": 23.8627823, "name": "Παραλία Αζάπικο"}, {"lat": 39.1921728, "lng": 23.4996736, "name": "Megas Gialos"}, {"lat": 39.1932094, "lng": 23.4959217, "name": "Μέγα Γυαλός"}, {"lat": 39.2075253, "lng": 23.4631189, "name": "Παραλία Κάστρου"}, {"lat": 39.1995341, "lng": 23.490082, "name": "Νικοτσάρα"}, {"lat": 39.2066006, "lng": 23.4788244, "name": "Λαλάρια"}, {"lat": 39.6403202, "lng": 22.8990267, "name": ""}, {"lat": 39.6554094, "lng": 22.894202, "name": "Παραλία Παπακώστα"}, {"lat": 39.7728376, "lng": 22.8594318, "name": ""}, {"lat": 39.6434861, "lng": 22.8977554, "name": ""}, {"lat": 39.8236395, "lng": 22.8060417, "name": ""}, {"lat": 39.8094941, "lng": 22.8295174, "name": ""}, {"lat": 39.1680231, "lng": 23.4093916, "name": "Παραλία Άγκιστρο"}, {"lat": 39.1465637, "lng": 23.3923588, "name": "Μεγάλη Μπανάνα"}, {"lat": 39.16681, "lng": 23.3984803, "name": ""}, {"lat": 39.14818, "lng": 23.4025876, "name": "Παραλία Κουκουναριές"}, {"lat": 39.1678693, "lng": 23.4040622, "name": "Παραλία Μανδράκι Ελιάς"}, {"lat": 39.1336267, "lng": 23.4625101, "name": ""}, {"lat": 39.1311937, "lng": 23.4636198, "name": ""}, {"lat": 39.1371026, "lng": 23.4604571, "name": "Καναπίτσα"}, {"lat": 39.1458982, "lng": 23.397779, "name": "Mystique beach"}, {"lat": 39.1488714, "lng": 23.3917258, "name": "Μικρή Μπανάνα"}, {"lat": 39.1533747, "lng": 23.3905462, "name": "Αγία Ελένη"}, {"lat": 39.1733703, "lng": 23.4243923, "name": "Μεγάλος Ασέληνος"}, {"lat": 39.1395984, "lng": 23.4576804, "name": "Τζανεριά"}, {"lat": 39.129624, "lng": 23.4525279, "name": ""}, {"lat": 39.1296677, "lng": 23.4554392, "name": ""}, {"lat": 39.1467819, "lng": 23.4645993, "name": "Αχλαδιές"}, {"lat": 39.1401135, "lng": 23.4189391, "name": "Τρούλος"}, {"lat": 39.1417615, "lng": 23.4389153, "name": "Αγία Παρασκευή"}, {"lat": 39.1457831, "lng": 23.4095144, "name": "Παραλία Μαραθά"}, {"lat": 39.1584708, "lng": 23.3890182, "name": "Παραλία Κρυφή Άμμος"}, {"lat": 39.1365286, "lng": 23.445979, "name": "Βρωμόλιμνος"}, {"lat": 39.1409405, "lng": 23.4454075, "name": "Κολιός"}, {"lat": 39.1811202, "lng": 23.4428425, "name": "Παραλία Λιγαριές"}, {"lat": 39.1761016, "lng": 23.4325171, "name": "Μικρός Ασέληνος"}, {"lat": 37.8170398, "lng": 24.0523624, "name": ""}, {"lat": 35.2674681, "lng": 23.528146, "name": ""}, {"lat": 40.6550196, "lng": 24.7668872, "name": "paradise beach"}, {"lat": 37.050381, "lng": 25.3660008, "name": "Plaka Beach"}, {"lat": 36.7650378, "lng": 27.021873, "name": "Polemi"}, {"lat": 36.7675596, "lng": 27.0453268, "name": "Polemi Beach"}, {"lat": 35.2483326, "lng": 23.8170078, "name": "Sougia Nude Beach"}, {"lat": 36.8918904, "lng": 27.2174056, "name": "Παραλία Καρνάγιο"}, {"lat": 39.5964756, "lng": 19.7964295, "name": ""}, {"lat": 38.8814254, "lng": 23.4397229, "name": "Σαρακήνικο"}, {"lat": 40.1766652, "lng": 23.7145419, "name": "Ακτή Καλογριάς"}, {"lat": 36.4210139, "lng": 28.1370468, "name": ""}, {"lat": 36.4205252, "lng": 28.1319972, "name": ""}, {"lat": 36.0942271, "lng": 28.0889266, "name": "Pallas Beach"}, {"lat": 36.0859294, "lng": 28.0878824, "name": "St. Paul's Beach"}, {"lat": 36.8575568, "lng": 27.1046895, "name": ""}, {"lat": 36.7476814, "lng": 26.9799725, "name": "Παραλία Άγιος Στέφανος"}, {"lat": 37.7491143, "lng": 26.5864388, "name": "Βάρσαμο"}, {"lat": 40.0882012, "lng": 23.9803729, "name": "Sarti Beach"}, {"lat": 39.5383696, "lng": 23.0086828, "name": ""}, {"lat": 38.1781713, "lng": 21.4907545, "name": ""}, {"lat": 39.8527331, "lng": 22.7707484, "name": "Παραλία Ψαρόλακας"}, {"lat": 39.8321343, "lng": 22.7987496, "name": ""}, {"lat": 39.8562872, "lng": 22.7640705, "name": "Παραλία Παναγία"}, {"lat": 39.8424758, "lng": 22.7825184, "name": "Πλατιά Άμμος"}, {"lat": 39.8389233, "lng": 22.7885434, "name": ""}, {"lat": 39.8583827, "lng": 22.7606531, "name": ""}, {"lat": 39.8476414, "lng": 22.7777322, "name": ""}, {"lat": 39.8493443, "lng": 22.775854, "name": "Παραλία Πηγάδι"}, {"lat": 39.8964331, "lng": 22.721105, "name": ""}, {"lat": 39.9203584, "lng": 22.714812, "name": "Παραλία Στρίντζος"}, {"lat": 36.8531056, "lng": 27.0924097, "name": "Παραλία Τρούλος"}, {"lat": 36.8457663, "lng": 27.0717728, "name": "Όρμος Μαστιχάρι"}, {"lat": 37.9546784, "lng": 24.0110698, "name": ""}, {"lat": 37.6821829, "lng": 26.3219662, "name": ""}, {"lat": 37.6636934, "lng": 26.2708847, "name": ""}, {"lat": 37.6542261, "lng": 26.2520341, "name": ""}, {"lat": 37.6811417, "lng": 26.3300569, "name": ""}, {"lat": 37.6810894, "lng": 26.3114826, "name": ""}, {"lat": 37.6807907, "lng": 26.3103389, "name": ""}, {"lat": 37.6285843, "lng": 26.1837688, "name": ""}, {"lat": 37.6293893, "lng": 26.2081329, "name": ""}, {"lat": 37.6815237, "lng": 26.3290859, "name": ""}, {"lat": 37.6260079, "lng": 26.1970282, "name": "Κυπαρίσσι"}, {"lat": 37.6826754, "lng": 26.3192696, "name": ""}, {"lat": 37.6269605, "lng": 26.1891021, "name": ""}, {"lat": 37.6731798, "lng": 26.2873697, "name": ""}, {"lat": 37.6369799, "lng": 26.2251016, "name": "Aris Potamos"}, {"lat": 36.4412337, "lng": 28.2346964, "name": ""}, {"lat": 36.1163252, "lng": 27.7116484, "name": ""}, {"lat": 36.3426189, "lng": 27.917714, "name": ""}, {"lat": 35.2293312, "lng": 26.272974, "name": ""}, {"lat": 36.427718, "lng": 28.234322, "name": "Παραλία Ζέφυρος"}, {"lat": 36.6905466, "lng": 24.4497302, "name": "Αχιβαδολίμνη"}, {"lat": 36.700245, "lng": 24.4078927, "name": "Φατούρενα"}, {"lat": 36.7032196, "lng": 24.4016191, "name": "Ριβάρι"}, {"lat": 36.4231819, "lng": 22.4733195, "name": "Μαρμάρι"}, {"lat": 36.4260563, "lng": 22.4757889, "name": "Μαρμάρι"}, {"lat": 36.4285975, "lng": 22.4858094, "name": "Πόρτο Κάγιο"}, {"lat": 36.4123787, "lng": 22.4889699, "name": ""}, {"lat": 37.5903461, "lng": 23.4026427, "name": ""}, {"lat": 40.2298936, "lng": 23.737964, "name": "Παραλία Λατούρα"}, {"lat": 35.1741359, "lng": 24.4150672, "name": "Παραλία Δαμνόνι"}, {"lat": 35.1725017, "lng": 24.4187492, "name": "Μικρό Αμμούδι"}, {"lat": 35.1707583, "lng": 24.4203506, "name": "Αμμούδι"}, {"lat": 39.1662175, "lng": 22.8933504, "name": "Sykitsa beach"}, {"lat": 35.1154933, "lng": 24.5524189, "name": "Μικρή Τριόπετρα"}, {"lat": 35.4105828, "lng": 24.7827869, "name": "Varkotopos beach"}, {"lat": 35.4023314, "lng": 24.9552257, "name": "Παραλία Φόδελε"}, {"lat": 39.9409936, "lng": 22.7153249, "name": ""}, {"lat": 39.3240815, "lng": 22.9269505, "name": "Αλυκές"}, {"lat": 35.4075635, "lng": 24.7850994, "name": "Livadi beach"}, {"lat": 38.8420522, "lng": 23.4638696, "name": "Παραλία Κρύας Βρύσης"}, {"lat": 40.9205475, "lng": 24.3851311, "name": "Παραλία Καλαμίτσας"}, {"lat": 40.1934799, "lng": 23.6860482, "name": "Παραλία Καστρί"}, {"lat": 40.1919432, "lng": 23.69349, "name": "Παραλία Αγίου Ιωάννη"}, {"lat": 40.1819687, "lng": 23.7097775, "name": "Παραλία Κοβιού"}, {"lat": 40.170237, "lng": 23.7208495, "name": "Παραλία Σπαθιών"}, {"lat": 37.8574695, "lng": 23.7497792, "name": "Balux - The house project"}, {"lat": 38.1664265, "lng": 24.2100998, "name": ""}, {"lat": 36.8503177, "lng": 22.2583915, "name": "Καλογριά"}, {"lat": 38.391334, "lng": 25.9903351, "name": "Ελίντα"}, {"lat": 38.3413139, "lng": 25.9932803, "name": "Παραλία Λιθί"}, {"lat": 38.2126557, "lng": 25.9122698, "name": "Αγία Δύναμη"}, {"lat": 35.0068995, "lng": 25.6662914, "name": ""}, {"lat": 34.989331, "lng": 25.3480761, "name": "Ληστής"}, {"lat": 34.9840913, "lng": 25.2824802, "name": ""}, {"lat": 34.985332, "lng": 25.2869564, "name": ""}, {"lat": 35.0315364, "lng": 25.9580938, "name": ""}, {"lat": 35.498741, "lng": 23.6743717, "name": ""}, {"lat": 35.0268909, "lng": 25.8914521, "name": ""}, {"lat": 36.8452679, "lng": 22.258818, "name": "Στούπα"}, {"lat": 37.6546086, "lng": 26.8817534, "name": "Pappa Beach"}, {"lat": 37.6551767, "lng": 26.8820077, "name": "Pappa Beach"}, {"lat": 37.6631366, "lng": 26.8823732, "name": ""}, {"lat": 37.6653438, "lng": 26.8844933, "name": "İreo beach"}, {"lat": 35.2693341, "lng": 23.5354899, "name": "Розовый пляж"}, {"lat": 39.2872746, "lng": 20.3394579, "name": "Σαρακήνικο"}, {"lat": 39.284687, "lng": 20.3583783, "name": "Σπαρτίλα"}, {"lat": 39.2851279, "lng": 20.3544141, "name": "Άγιος Σώστης"}, {"lat": 36.4239061, "lng": 28.192785, "name": "Παραλία Ιξιάς"}, {"lat": 36.4270958, "lng": 28.1971049, "name": "Παραλία Ιξιάς"}, {"lat": 36.43141, "lng": 28.2006332, "name": "Παραλία Ιξιάς"}, {"lat": 36.5613784, "lng": 26.3953804, "name": ""}, {"lat": 37.0281944, "lng": 25.370271, "name": "Mikri Vigla"}, {"lat": 37.0325297, "lng": 25.3731885, "name": "Orkos"}, {"lat": 37.035608, "lng": 25.3770438, "name": ""}, {"lat": 36.8514159, "lng": 25.4735694, "name": ""}, {"lat": 34.8599106, "lng": 24.1106714, "name": "Σαρακίνικο"}, {"lat": 34.8308548, "lng": 24.1114276, "name": "Κόρφος"}, {"lat": 34.8043397, "lng": 24.1237054, "name": "Tripiti"}, {"lat": 34.8675666, "lng": 24.0918031, "name": "Λίβας"}, {"lat": 35.2662341, "lng": 23.5685908, "name": "Kendrodasos"}, {"lat": 40.2173222, "lng": 23.315593, "name": "Πόρτες"}, {"lat": 40.2210941, "lng": 23.3408953, "name": ""}, {"lat": 40.2048788, "lng": 23.3194437, "name": ""}, {"lat": 39.7672382, "lng": 19.9532959, "name": ""}, {"lat": 39.7715149, "lng": 19.9538275, "name": ""}, {"lat": 39.7694447, "lng": 19.9539373, "name": "Κορφοβόνια"}, {"lat": 36.6391136, "lng": 22.38171, "name": ""}, {"lat": 36.6414152, "lng": 22.383039, "name": "Παραλία Διρού"}, {"lat": 36.9563265, "lng": 21.6796937, "name": "Διβάρι"}, {"lat": 36.7457455, "lng": 21.9057623, "name": "Καλαμάκι"}, {"lat": 36.952485, "lng": 21.6651578, "name": ""}, {"lat": 40.2278903, "lng": 23.7466974, "name": ""}, {"lat": 36.2097759, "lng": 23.0524669, "name": "Παραλία Καλαδί"}, {"lat": 36.2244436, "lng": 23.0649056, "name": "Παραλία Παλαιόπολη"}, {"lat": 39.3658455, "lng": 20.1010259, "name": "Παραλία Αρκουδίλα"}, {"lat": 39.4068942, "lng": 20.0978681, "name": "Παραλία Παρακλάδι"}, {"lat": 39.3755876, "lng": 20.0653892, "name": "Παραλία Άγιος Γόρδης"}, {"lat": 39.3839071, "lng": 20.0476788, "name": "skalia beach"}, {"lat": 39.3709531, "lng": 20.0746411, "name": "Παραλία Κάνουλας"}, {"lat": 39.4345241, "lng": 20.0867771, "name": "Παραλία Μπούκα"}, {"lat": 39.4019665, "lng": 20.1005697, "name": "Παραλία Αγ. Πέτρος"}, {"lat": 34.8712376, "lng": 24.06543, "name": ""}, {"lat": 34.8585823, "lng": 24.0618714, "name": "Ποταμός παραλία γυμνιστών"}, {"lat": 34.866738, "lng": 24.0661285, "name": "Πύργος παραλία γυμνιστών"}, {"lat": 34.8707647, "lng": 24.072673, "name": "Lavrakas nudist beach"}, {"lat": 37.1557244, "lng": 24.5321703, "name": "Άγιος Σώστης"}, {"lat": 37.1497436, "lng": 24.5313614, "name": "Λιά"}, {"lat": 37.1381997, "lng": 24.5313611, "name": ""}, {"lat": 37.1335606, "lng": 24.5163533, "name": "Καράβι"}, {"lat": 37.1353718, "lng": 24.4407408, "name": "Μαλιάδικο"}, {"lat": 37.1289804, "lng": 24.4233724, "name": ""}, {"lat": 37.1309865, "lng": 24.4352211, "name": "Καλόγερος"}, {"lat": 37.1278037, "lng": 24.4310577, "name": "Αχλάδι"}, {"lat": 37.0236281, "lng": 24.6552585, "name": "Βρουλίδια"}, {"lat": 37.7020864, "lng": 24.0622618, "name": ""}, {"lat": 37.6595657, "lng": 23.9791303, "name": "Παραλία ΚΑΠΕ"}, {"lat": 37.6802491, "lng": 23.9417285, "name": ""}, {"lat": 37.6080058, "lng": 24.2720297, "name": "Βρόσκοπος"}, {"lat": 37.6815741, "lng": 23.9411575, "name": ""}, {"lat": 36.8619913, "lng": 25.4692312, "name": ""}, {"lat": 36.8239757, "lng": 25.906127, "name": "Αγία Άννα"}, {"lat": 37.8357881, "lng": 24.9423412, "name": "Παραπόρτι"}, {"lat": 37.8024899, "lng": 26.8568041, "name": ""}, {"lat": 36.6590725, "lng": 24.4020592, "name": "Αγία Κυριακή"}, {"lat": 36.6629259, "lng": 24.4287732, "name": "Κήποι"}, {"lat": 36.6580674, "lng": 24.4083228, "name": "Ψαθί"}, {"lat": 36.6588438, "lng": 24.4140322, "name": ""}, {"lat": 36.6575597, "lng": 24.4118907, "name": ""}, {"lat": 36.6598314, "lng": 24.4197362, "name": ""}, {"lat": 37.745774, "lng": 23.5407695, "name": ""}, {"lat": 37.5269158, "lng": 22.8674536, "name": "Psili Ammos beach"}, {"lat": 38.4271044, "lng": 22.437817, "name": ""}, {"lat": 38.4278772, "lng": 22.432632, "name": ""}, {"lat": 35.3291538, "lng": 25.3868604, "name": ""}, {"lat": 37.5221596, "lng": 23.5027845, "name": ""}, {"lat": 37.5065573, "lng": 23.4594587, "name": "Κανάλι"}, {"lat": 37.5225119, "lng": 23.4288933, "name": ""}, {"lat": 40.5827173, "lng": 24.6673545, "name": "Καλάμι"}, {"lat": 40.623735, "lng": 24.5825679, "name": "Μεταλλεία"}, {"lat": 37.9303774, "lng": 23.6473513, "name": "Παραλία Φρεαττύδος"}, {"lat": 40.6185342, "lng": 24.7616277, "name": ""}, {"lat": 40.6055806, "lng": 24.7423344, "name": "Αλυκές"}, {"lat": 35.1071243, "lng": 24.5584714, "name": "Αμμόλοφους"}, {"lat": 35.1891641, "lng": 24.3265467, "name": "Χόχλακας"}, {"lat": 35.1872025, "lng": 24.3151783, "name": "Κόρακας"}, {"lat": 35.1885764, "lng": 24.3201411, "name": "Κλήματα"}, {"lat": 35.1210168, "lng": 24.5439566, "name": "Τριόπετρα"}, {"lat": 35.1126169, "lng": 24.5545861, "name": "Triopetra Beach"}, {"lat": 35.1842944, "lng": 24.354092, "name": "Σταυρί"}, {"lat": 35.1332095, "lng": 24.5326791, "name": "Λίγκρες"}, {"lat": 35.1877872, "lng": 24.3582977, "name": "Κόκκινος Βόλακας"}, {"lat": 35.1719692, "lng": 24.41906, "name": "Κλεισιδι"}, {"lat": 40.583494, "lng": 24.6357522, "name": "Αγία Παρασκευή"}, {"lat": 40.593744, "lng": 24.6202796, "name": "Νότος"}, {"lat": 40.583993, "lng": 24.6307354, "name": "Ψιλή Άμμος"}, {"lat": 40.5949371, "lng": 24.6188857, "name": "Ρωσογκρεμός"}, {"lat": 40.5831018, "lng": 24.6389443, "name": "Αστρίς"}, {"lat": 40.6153152, "lng": 24.5991703, "name": "Αλεξάντρα"}, {"lat": 40.6173602, "lng": 24.5969026, "name": "Πευκάρι"}, {"lat": 37.0302482, "lng": 25.5767763, "name": ""}, {"lat": 37.0353927, "lng": 25.5784367, "name": ""}, {"lat": 37.1678816, "lng": 25.5714254, "name": ""}, {"lat": 37.1635391, "lng": 25.5734328, "name": ""}, {"lat": 37.1910653, "lng": 25.5045448, "name": "Μελινό"}, {"lat": 37.1937765, "lng": 25.5119037, "name": ""}, {"lat": 40.6659498, "lng": 23.7035816, "name": "παραλία Σταυρού"}, {"lat": 39.2744946, "lng": 23.2829214, "name": "Ποτόκι"}, {"lat": 36.7591343, "lng": 23.0839768, "name": "Κόχυλας"}, {"lat": 36.8586231, "lng": 23.0383209, "name": "Βλυχάδα"}, {"lat": 36.8373304, "lng": 23.0524303, "name": "Μπαλογκέρι (Ντάμος)"}, {"lat": 37.863758, "lng": 20.7384518, "name": "Little Xigia"}, {"lat": 37.8662774, "lng": 24.040187, "name": "Αυλάκι"}, {"lat": 37.872037, "lng": 24.0222308, "name": ""}, {"lat": 37.864702, "lng": 23.7401504, "name": "Παραλία Γλυφάδας Ακτή Γ"}, {"lat": 37.8901233, "lng": 23.7207267, "name": "Άγιος Κοσμάς"}, {"lat": 40.8665612, "lng": 25.6069096, "name": ""}, {"lat": 40.8675286, "lng": 25.5969733, "name": ""}, {"lat": 40.8988934, "lng": 25.4475584, "name": ""}, {"lat": 40.8860585, "lng": 25.4887189, "name": "Παχυνάμμος"}, {"lat": 38.1622495, "lng": 22.3449794, "name": "Παραλία Ακράτας"}, {"lat": 37.4457603, "lng": 24.8997336, "name": "Κίνι"}, {"lat": 37.390248, "lng": 24.945331, "name": "Παραλία Βάρη"}, {"lat": 37.3855443, "lng": 24.8808811, "name": "Αγκαθωπές"}, {"lat": 37.8776692, "lng": 24.7268453, "name": ""}, {"lat": 35.1027145, "lng": 24.5639585, "name": "Φοινικίδια"}, {"lat": 35.3922024, "lng": 24.6100135, "name": ""}, {"lat": 37.8607219, "lng": 23.7476172, "name": "Παραλία Γλυφάδας Ακτή Δ"}, {"lat": 37.540768, "lng": 21.5629023, "name": ""}, {"lat": 35.1668954, "lng": 25.7113241, "name": ""}, {"lat": 37.4365737, "lng": 21.6457837, "name": ""}, {"lat": 36.9952085, "lng": 21.9511631, "name": ""}, {"lat": 36.9909195, "lng": 21.9420294, "name": ""}, {"lat": 36.9844222, "lng": 21.9331374, "name": ""}, {"lat": 36.4236709, "lng": 28.1522327, "name": ""}, {"lat": 36.4238763, "lng": 28.1546733, "name": ""}, {"lat": 36.4236352, "lng": 28.1574523, "name": ""}, {"lat": 36.4230667, "lng": 28.1602749, "name": ""}, {"lat": 37.342222, "lng": 26.5564935, "name": ""}, {"lat": 37.3503885, "lng": 26.5669812, "name": ""}, {"lat": 37.3051659, "lng": 26.5310204, "name": ""}, {"lat": 37.2955745, "lng": 26.5615163, "name": ""}, {"lat": 37.2968603, "lng": 26.5612099, "name": ""}, {"lat": 37.3076646, "lng": 26.5329925, "name": ""}, {"lat": 36.4199367, "lng": 28.1258758, "name": "Kieselstein"}, {"lat": 37.2783122, "lng": 26.5456357, "name": "Ψιλή άμμος"}, {"lat": 37.8249895, "lng": 20.8593539, "name": ""}, {"lat": 37.8393099, "lng": 20.8214375, "name": ""}, {"lat": 37.8264854, "lng": 20.8483976, "name": "Amboula Beach"}, {"lat": 37.8232651, "lng": 20.8601059, "name": ""}, {"lat": 37.8394622, "lng": 20.8102577, "name": ""}, {"lat": 37.8092421, "lng": 23.7733696, "name": "Αστέρας"}, {"lat": 37.8114598, "lng": 23.777656, "name": ""}, {"lat": 37.8188595, "lng": 23.7679476, "name": "Μεγάλο Καβούρι"}, {"lat": 37.8138415, "lng": 23.7665643, "name": ""}, {"lat": 36.4083922, "lng": 28.2293972, "name": "Παραλία Αγία Μαρίνα"}, {"lat": 40.1182932, "lng": 23.9806785, "name": "Παραλία Πλατανίτσι"}, {"lat": 40.1246126, "lng": 23.9772092, "name": "Παραλία Γυμνιστών Πλατανίτσι"}, {"lat": 37.4218724, "lng": 24.8775179, "name": "Παραλία Γαλησσά"}, {"lat": 35.4061962, "lng": 25.0186883, "name": "Παραλία Αγία Πελαγία"}, {"lat": 37.5629128, "lng": 22.7988937, "name": "Παραλία Αρβανιτιά"}, {"lat": 35.040973, "lng": 26.2332875, "name": "Παραλία Βουρλιά"}, {"lat": 35.0392624, "lng": 26.2322518, "name": "Χιόνα"}, {"lat": 35.038645, "lng": 26.2316502, "name": "Άργιλος"}, {"lat": 35.0066707, "lng": 25.8272133, "name": ""}, {"lat": 35.0111009, "lng": 25.839982, "name": "Kakkos"}, {"lat": 35.0142386, "lng": 25.8424471, "name": ""}, {"lat": 38.5421339, "lng": 25.5654989, "name": "Κατσούνι"}, {"lat": 40.0758452, "lng": 23.9852754, "name": ""}, {"lat": 35.4253991, "lng": 27.1513414, "name": "Μακρύγιαλος"}, {"lat": 39.3834715, "lng": 20.2757746, "name": "Αγκάλη"}, {"lat": 39.3833946, "lng": 20.2779808, "name": "Καμίνι"}, {"lat": 39.3784799, "lng": 20.2816772, "name": "Σοφάς"}, {"lat": 39.3869489, "lng": 20.2739628, "name": "Αγία Παρασκευή"}, {"lat": 39.3559149, "lng": 20.2876262, "name": "Αρίλλα"}, {"lat": 39.4024661, "lng": 20.2247207, "name": "Διαπόρι"}, {"lat": 39.3924245, "lng": 20.2694659, "name": "Μικρό Ντράφι"}, {"lat": 39.3725484, "lng": 20.2779722, "name": "Παραλία Κατσονήσι"}, {"lat": 39.4005576, "lng": 20.2499805, "name": "Ζαβία"}, {"lat": 38.6719558, "lng": 23.9164816, "name": "Hiliadou Nudist Beach"}, {"lat": 38.6691142, "lng": 23.9246487, "name": "Χιλιαδού"}, {"lat": 35.4200905, "lng": 24.6584195, "name": ""}, {"lat": 40.074998, "lng": 23.9878599, "name": ""}, {"lat": 36.8672637, "lng": 22.2481861, "name": "Παραλία Φονέας"}, {"lat": 35.5094261, "lng": 27.207375, "name": ""}, {"lat": 35.5217112, "lng": 27.2016729, "name": ""}, {"lat": 37.8417826, "lng": 20.7781064, "name": "Alykanas beach"}, {"lat": 38.3294036, "lng": 20.7432056, "name": "Παραλία Πέρα Πηγάδι"}, {"lat": 35.2022244, "lng": 24.1244877, "name": "Ilingas Beach"}, {"lat": 35.1927364, "lng": 24.1509622, "name": "Παραλία Αγίου Χαραλάμπους"}, {"lat": 35.1986577, "lng": 24.0998101, "name": "Timios Stavros beach"}, {"lat": 35.1931739, "lng": 24.1464012, "name": "Σφακιανό Αμμούδι"}, {"lat": 37.0431885, "lng": 26.9218166, "name": ""}, {"lat": 37.0448139, "lng": 26.9190412, "name": "Παραλία Αλέξις"}, {"lat": 38.4716139, "lng": 20.5484262, "name": "Dafnoudi beach"}, {"lat": 36.0881189, "lng": 28.088029, "name": "Lindos Beach"}, {"lat": 36.3214667, "lng": 28.2095134, "name": "Παραλία Άντονυ Κουίν"}, {"lat": 36.3202515, "lng": 28.2055602, "name": "Παραλία Λαδικό"}, {"lat": 36.2497596, "lng": 28.1695168, "name": "Λιμανάκι"}, {"lat": 36.2450956, "lng": 28.1641228, "name": "Παραλία Κολύμπια"}, {"lat": 36.0703048, "lng": 28.0518984, "name": "Παραλία Πεύκοι"}, {"lat": 36.0671279, "lng": 28.0539639, "name": "Kavos Beach"}, {"lat": 36.077262, "lng": 28.0351393, "name": ""}, {"lat": 36.0734413, "lng": 28.048871, "name": ""}, {"lat": 36.077648, "lng": 28.0392651, "name": ""}, {"lat": 36.438003, "lng": 28.2049108, "name": "Παραλία Ιξιάς"}, {"lat": 36.4436076, "lng": 28.2083045, "name": ""}, {"lat": 36.9750069, "lng": 26.928159, "name": "Platys Gialos beach"}, {"lat": 36.972334, "lng": 26.9331896, "name": "Παραλία Λινάρια"}, {"lat": 36.9701632, "lng": 26.9342264, "name": "Παραλία Καντούνι"}, {"lat": 36.378424, "lng": 28.2381779, "name": ""}, {"lat": 39.8973751, "lng": 25.0654229, "name": "Avlonas Beach"}, {"lat": 39.9055605, "lng": 25.0664203, "name": ""}, {"lat": 38.2214922, "lng": 25.9147237, "name": "Σαλάγωνα"}, {"lat": 38.2225958, "lng": 25.9085312, "name": ""}, {"lat": 38.2206955, "lng": 25.9083011, "name": ""}, {"lat": 38.2239496, "lng": 25.893972, "name": "Παραλία Αυλωνία"}, {"lat": 38.2211458, "lng": 25.9033246, "name": "Paralia Traxyli"}, {"lat": 38.3208517, "lng": 26.1543579, "name": "Καρφάς"}, {"lat": 38.2064467, "lng": 25.9266254, "name": "Παραλία Κάτω Φανά"}, {"lat": 38.1945879, "lng": 25.9528532, "name": "Παραλία Καρύντα"}, {"lat": 38.1910834, "lng": 25.9515885, "name": "Karynta beach"}, {"lat": 38.1570045, "lng": 26.0084924, "name": "Παραλία Βρουλίδια"}, {"lat": 38.1640841, "lng": 25.9951056, "name": "Παραλία Αυλωνιά"}, {"lat": 38.1718189, "lng": 26.0243226, "name": ""}, {"lat": 38.1846932, "lng": 26.0289835, "name": "Μαύρα Βόλια"}, {"lat": 38.3628977, "lng": 26.1436684, "name": "Bella Vista"}, {"lat": 40.1021501, "lng": 23.7752107, "name": "Παραλία Παράδεισος"}, {"lat": 35.3512772, "lng": 24.3412219, "name": "Παραλία Επισκοπής"}, {"lat": 40.2600961, "lng": 23.4814639, "name": ""}, {"lat": 40.259867, "lng": 23.478781, "name": ""}, {"lat": 40.1463182, "lng": 23.7333349, "name": "Παραλία Ανθέμου"}, {"lat": 40.1336655, "lng": 23.7508148, "name": "Παραλία Λαγομάνδρα"}, {"lat": 40.1300618, "lng": 23.7602653, "name": ""}, {"lat": 40.1320666, "lng": 23.7565551, "name": ""}, {"lat": 40.1352247, "lng": 23.7465561, "name": "Παρ. Λαγομάδρα"}, {"lat": 40.1274328, "lng": 23.7628756, "name": ""}, {"lat": 40.1248238, "lng": 23.7644496, "name": "Castello beach"}, {"lat": 40.0799115, "lng": 23.7916686, "name": ""}, {"lat": 40.0745189, "lng": 23.7897571, "name": ""}, {"lat": 39.7461274, "lng": 19.9387283, "name": "Παραλία Χουχούλιο"}, {"lat": 39.6560316, "lng": 19.723904, "name": "Ηλιόδωρος"}, {"lat": 36.9365129, "lng": 25.6198753, "name": "Ιταλίδα"}, {"lat": 36.9315873, "lng": 25.6106994, "name": "Λίμνη"}, {"lat": 36.9315863, "lng": 25.5962209, "name": "Λουτρό"}, {"lat": 36.9319821, "lng": 25.6112249, "name": "Πόρτα"}, {"lat": 36.93686, "lng": 25.6240762, "name": ""}, {"lat": 36.9303798, "lng": 25.6092863, "name": ""}, {"lat": 36.9358537, "lng": 25.6210704, "name": ""}, {"lat": 37.8862714, "lng": 20.7178369, "name": ""}, {"lat": 35.0283003, "lng": 25.8981997, "name": "Παραλία της γριάς το πήδημα"}, {"lat": 38.8928488, "lng": 23.4318905, "name": "Πρασίδι"}, {"lat": 39.016352, "lng": 23.33649, "name": ""}, {"lat": 39.0148399, "lng": 23.34208, "name": "Παραλία Αγίου Νικολάου"}, {"lat": 39.0157052, "lng": 23.3383692, "name": ""}, {"lat": 39.018003, "lng": 23.3354105, "name": ""}, {"lat": 40.895402, "lng": 24.3370366, "name": ""}, {"lat": 40.8937259, "lng": 24.3354358, "name": ""}, {"lat": 40.9440249, "lng": 24.4620686, "name": ""}, {"lat": 40.9452736, "lng": 24.454875, "name": ""}, {"lat": 37.6889897, "lng": 26.9301697, "name": "Pythagorio beach"}, {"lat": 40.9032179, "lng": 24.3514133, "name": ""}, {"lat": 40.9024969, "lng": 24.3490606, "name": ""}, {"lat": 40.8996154, "lng": 24.3432893, "name": ""}, {"lat": 40.9078588, "lng": 24.3672448, "name": "Bomo Tosca Beach"}, {"lat": 40.9148876, "lng": 24.3791469, "name": "Μπάτης"}, {"lat": 40.9345218, "lng": 24.3968961, "name": "Ραψάνη"}, {"lat": 35.2663473, "lng": 26.2631613, "name": "Itanos Beach"}, {"lat": 35.2619138, "lng": 26.2639109, "name": "Itanos Beach"}, {"lat": 39.4042056, "lng": 20.234532, "name": "Κάρβουνο"}, {"lat": 37.1228395, "lng": 25.2331687, "name": "Πιπέρι"}, {"lat": 37.1020666, "lng": 25.2653167, "name": "Αμπελάς"}, {"lat": 37.073205, "lng": 25.2597597, "name": "Γλυφάδες"}, {"lat": 37.0692868, "lng": 25.2628984, "name": "Tsoukalia Beach"}, {"lat": 35.5254214, "lng": 23.8533131, "name": "Παραλία του Μάλεμε"}, {"lat": 36.9836715, "lng": 25.1906592, "name": "παραλία Γλυφά"}, {"lat": 36.9823192, "lng": 25.1895103, "name": "Παραλία Γλυφά"}, {"lat": 36.9848732, "lng": 25.1932203, "name": "παραλία Γλυφά"}, {"lat": 37.0934329, "lng": 25.1549359, "name": "Λιβάδια"}, {"lat": 39.1821044, "lng": 20.2055091, "name": "Mongonisi"}, {"lat": 37.0250037, "lng": 22.0493246, "name": ""}, {"lat": 37.0271293, "lng": 22.0846686, "name": ""}, {"lat": 37.71493, "lng": 21.315632, "name": "Παραλια Αγιου Ηλια"}, {"lat": 37.1239245, "lng": 25.264195, "name": "Ξυφάρα"}, {"lat": 37.1314943, "lng": 25.2774232, "name": ""}, {"lat": 36.8172193, "lng": 22.2934471, "name": "Παραλία Πανταζή"}, {"lat": 36.8163766, "lng": 22.2944739, "name": ""}, {"lat": 36.9965902, "lng": 26.9344528, "name": ""}, {"lat": 38.0320584, "lng": 22.8738392, "name": ""}, {"lat": 37.9791491, "lng": 22.9750733, "name": ""}, {"lat": 37.9739249, "lng": 22.9753347, "name": ""}, {"lat": 35.1767404, "lng": 25.709493, "name": "Αλμυρός"}, {"lat": 36.9920614, "lng": 26.9308904, "name": ""}, {"lat": 35.0582925, "lng": 26.2427746, "name": "Krinakia beach"}, {"lat": 38.9785031, "lng": 23.0917047, "name": "Τσοκαΐτι"}, {"lat": 39.0185461, "lng": 23.2235505, "name": ""}, {"lat": 39.0114095, "lng": 23.2123147, "name": "Παραλία Πευκί"}, {"lat": 37.7780033, "lng": 24.0824128, "name": "Καλοπήγαδο"}, {"lat": 37.7921877, "lng": 24.0825765, "name": "Αρμυρίκια"}, {"lat": 37.7895415, "lng": 24.0802464, "name": "Πόρτο Εννέα"}, {"lat": 37.8188952, "lng": 24.0487462, "name": "cocoloco"}, {"lat": 37.7722884, "lng": 24.0792703, "name": "Τσονίμα"}, {"lat": 37.782808, "lng": 26.981577, "name": ""}, {"lat": 37.779311, "lng": 26.982366, "name": ""}, {"lat": 37.7612035, "lng": 26.9685355, "name": ""}, {"lat": 37.779262, "lng": 26.8874664, "name": "Kokkari Beach"}, {"lat": 37.7777071, "lng": 26.8967215, "name": "Small lemonákia beach"}, {"lat": 37.780395, "lng": 26.8926731, "name": ""}, {"lat": 40.7630946, "lng": 23.7728356, "name": "Κυανή Ακτή"}, {"lat": 40.7445944, "lng": 23.7288337, "name": "Σερραϊκή Ακτή"}, {"lat": 40.720725, "lng": 23.7109278, "name": ""}, {"lat": 36.8105007, "lng": 21.9374743, "name": "Αγία Τριάδα"}, {"lat": 36.47624, "lng": 22.9820961, "name": "Παραλία Λεύκης"}, {"lat": 36.492477, "lng": 22.9419166, "name": "Παραλία Κάτω Νησί"}, {"lat": 37.2683401, "lng": 21.6773138, "name": "Kartela"}, {"lat": 37.5416823, "lng": 22.8204321, "name": "Καραθώνα"}, {"lat": 36.6708039, "lng": 24.503911, "name": "Ψαροβολάδα"}, {"lat": 36.7538538, "lng": 26.9905689, "name": ""}, {"lat": 36.9870849, "lng": 26.9286681, "name": ""}, {"lat": 37.0581737, "lng": 26.9527043, "name": "Παραλία Συκάτης"}, {"lat": 37.0581054, "lng": 26.9502259, "name": ""}, {"lat": 37.0609362, "lng": 26.9399967, "name": "Vizotos beach"}, {"lat": 36.7562953, "lng": 26.9997147, "name": "Παραλία Καμήλα"}, {"lat": 36.7557232, "lng": 26.9971771, "name": ""}, {"lat": 36.7596786, "lng": 27.007622, "name": "Paradise Beach"}, {"lat": 36.7369593, "lng": 26.9705146, "name": ""}, {"lat": 36.7737471, "lng": 26.9627973, "name": "Λιμνιώνας"}, {"lat": 36.7347367, "lng": 26.9720917, "name": ""}, {"lat": 35.4501157, "lng": 24.197535, "name": ""}, {"lat": 37.7589198, "lng": 24.0749826, "name": ""}, {"lat": 36.66135, "lng": 24.4751584, "name": "Κάλαμος"}, {"lat": 36.6694191, "lng": 24.4424113, "name": "Άγιος Σώστης"}, {"lat": 38.098707, "lng": 20.6536646, "name": ""}, {"lat": 36.6940114, "lng": 24.4279633, "name": ""}, {"lat": 36.6995107, "lng": 24.4234781, "name": ""}, {"lat": 36.6994939, "lng": 24.4227292, "name": ""}, {"lat": 38.0803851, "lng": 20.6903356, "name": "Κορώνι"}, {"lat": 38.3107923, "lng": 20.4881174, "name": "Αγια Κυριακη"}, {"lat": 38.3160267, "lng": 20.471694, "name": "Βουτη"}, {"lat": 38.3174506, "lng": 20.4700146, "name": ""}, {"lat": 38.3435982, "lng": 20.5355012, "name": "Μύρτος"}, {"lat": 38.0708849, "lng": 20.7992981, "name": "Σκάλα"}, {"lat": 38.1157806, "lng": 20.6238144, "name": "Κανάλι"}, {"lat": 38.0631839, "lng": 20.7939182, "name": "Σπίθι"}, {"lat": 38.4726043, "lng": 20.5618826, "name": ""}, {"lat": 38.3778462, "lng": 20.5392998, "name": ""}, {"lat": 38.3772393, "lng": 20.5379247, "name": ""}, {"lat": 38.471621, "lng": 20.5624915, "name": "Kimilia Beach"}, {"lat": 37.0661214, "lng": 25.3551607, "name": ""}, {"lat": 37.0689603, "lng": 25.3544164, "name": "Παραλία Αγίας Άννας"}, {"lat": 37.8603138, "lng": 22.998519, "name": ""}, {"lat": 38.0270439, "lng": 22.8729113, "name": "Πλαζ Λίμνης Ηραίου"}, {"lat": 35.3993205, "lng": 25.0272401, "name": "Παραλία Λυγαριά"}, {"lat": 37.5206252, "lng": 22.8613322, "name": ""}, {"lat": 35.5134769, "lng": 23.9690023, "name": "Καλαμάκι"}, {"lat": 36.0539349, "lng": 27.9776309, "name": "Παραλία Γαλούνι"}, {"lat": 39.9453529, "lng": 23.5305949, "name": ""}, {"lat": 37.0318654, "lng": 25.2549817, "name": "Λογαράς"}, {"lat": 36.6836594, "lng": 26.9490153, "name": "Παραλία Παράδεισος"}, {"lat": 36.711752, "lng": 26.9720182, "name": ""}, {"lat": 40.0640583, "lng": 23.78965, "name": ""}, {"lat": 40.1342488, "lng": 23.4008572, "name": ""}, {"lat": 40.1337633, "lng": 23.4020029, "name": ""}, {"lat": 40.1368659, "lng": 23.398466, "name": ""}, {"lat": 39.9967597, "lng": 23.5925265, "name": ""}, {"lat": 36.1051098, "lng": 27.7383111, "name": ""}, {"lat": 35.3316676, "lng": 25.2411884, "name": ""}, {"lat": 36.8903531, "lng": 27.1838355, "name": "Tigaki"}, {"lat": 36.8879536, "lng": 27.1657976, "name": ""}, {"lat": 36.88981, "lng": 27.2020262, "name": ""}, {"lat": 36.8900855, "lng": 27.2044689, "name": ""}, {"lat": 40.3124828, "lng": 23.9454653, "name": "Μεγάλη Άμμος"}, {"lat": 40.3251353, "lng": 23.8955, "name": "Καραγάτσια"}, {"lat": 35.3197369, "lng": 25.5656682, "name": "Πλάκα"}, {"lat": 35.3197448, "lng": 25.5673678, "name": "Βόλια"}, {"lat": 35.3193824, "lng": 25.5627874, "name": ""}, {"lat": 35.3192516, "lng": 25.5618161, "name": ""}, {"lat": 35.319643, "lng": 25.5710189, "name": "Μπάλος"}, {"lat": 36.8542215, "lng": 27.0964532, "name": ""}, {"lat": 37.5148992, "lng": 23.4386602, "name": "Love Beach"}, {"lat": 39.999074, "lng": 23.3825936, "name": ""}, {"lat": 39.9928856, "lng": 23.38014, "name": ""}, {"lat": 40.049445, "lng": 23.3481477, "name": "Παραλία Ελάνη"}, {"lat": 40.0339776, "lng": 23.35884, "name": ""}, {"lat": 36.3750115, "lng": 28.2354481, "name": "Oasis Beach"}, {"lat": 36.3741284, "lng": 28.232366, "name": ""}, {"lat": 36.3764971, "lng": 28.2368987, "name": "Κόκκινα"}, {"lat": 39.9153554, "lng": 23.6501909, "name": "Παρ. Αυλάκι"}, {"lat": 39.9620208, "lng": 23.6785597, "name": "Παραλία Χρουσώ"}, {"lat": 39.9674968, "lng": 23.6767493, "name": ""}, {"lat": 35.1698955, "lng": 26.2838267, "name": ""}, {"lat": 35.1692804, "lng": 26.2813763, "name": "Skinias Beach"}, {"lat": 37.4370895, "lng": 23.5163803, "name": ""}, {"lat": 37.4287308, "lng": 23.5067966, "name": ""}, {"lat": 37.4312533, "lng": 23.5142126, "name": ""}, {"lat": 37.5281288, "lng": 22.8723096, "name": "Καστράκι"}, {"lat": 37.7053073, "lng": 26.6612164, "name": "Beach Aspres"}, {"lat": 37.7050233, "lng": 26.6538458, "name": "Handaki"}, {"lat": 37.705221, "lng": 26.6581969, "name": "Aspres"}, {"lat": 36.7961266, "lng": 25.766585, "name": "Παραδείσια"}, {"lat": 37.7033934, "lng": 26.7315332, "name": "Kaladakia"}, {"lat": 37.7212555, "lng": 26.5725514, "name": ""}, {"lat": 37.683437, "lng": 26.6195011, "name": ""}, {"lat": 37.6839576, "lng": 26.6174872, "name": ""}, {"lat": 39.107894, "lng": 26.5645081, "name": "Ακτή Τσαμάκια"}, {"lat": 39.1119762, "lng": 26.5659338, "name": "Φυκιότρυπα"}, {"lat": 39.1745364, "lng": 26.5077621, "name": "Πλαζ Κανόνι"}, {"lat": 39.1936441, "lng": 26.4908873, "name": ""}, {"lat": 40.3155819, "lng": 23.9394263, "name": "Άγιος Γεώργιος"}, {"lat": 40.3293906, "lng": 23.9235146, "name": "Λιμανάκι"}, {"lat": 40.3220501, "lng": 23.9107203, "name": "Καλοπήγαδο"}, {"lat": 39.959124, "lng": 25.3218684, "name": "Τηγάνι"}, {"lat": 39.2049434, "lng": 26.4853362, "name": "Πεταλίδι"}, {"lat": 40.7278578, "lng": 24.5463977, "name": "Σκάλα Σωτήρος"}, {"lat": 40.7308619, "lng": 24.5495472, "name": ""}, {"lat": 35.2168078, "lng": 26.0846442, "name": ""}, {"lat": 37.6192329, "lng": 24.7051633, "name": ""}, {"lat": 37.6024014, "lng": 24.7348569, "name": "4ος Όρμος"}, {"lat": 36.5446735, "lng": 22.388999, "name": ""}, {"lat": 36.5411343, "lng": 22.3913588, "name": "Χαλικιά"}, {"lat": 36.8621889, "lng": 22.2499204, "name": "Παραλία Δελφίνια"}, {"lat": 37.3647387, "lng": 23.0747609, "name": ""}, {"lat": 37.3091102, "lng": 23.1952239, "name": ""}, {"lat": 37.3611396, "lng": 23.0739289, "name": ""}, {"lat": 39.9641238, "lng": 23.9669693, "name": "Παρ. ΄Αμπελος"}, {"lat": 40.0261814, "lng": 24.017736, "name": "Παραλία Κριαρίτσι"}, {"lat": 40.032349, "lng": 24.0186375, "name": "Τηγανιά"}, {"lat": 39.9913224, "lng": 23.9965685, "name": "Παραλία Γυμνιστιών Καλαμίτσι"}, {"lat": 40.0228183, "lng": 24.0202482, "name": ""}, {"lat": 40.0317567, "lng": 24.0191057, "name": ""}, {"lat": 40.0307557, "lng": 24.0194013, "name": ""}, {"lat": 40.0231625, "lng": 24.0191394, "name": ""}, {"lat": 40.0364641, "lng": 23.999698, "name": ""}, {"lat": 39.9847857, "lng": 23.9873846, "name": "Πλαζ Θάλατα"}, {"lat": 40.0338501, "lng": 24.0094804, "name": "Klimataria Beach"}, {"lat": 39.9903922, "lng": 23.9918894, "name": "Kalamitsi"}, {"lat": 40.0361898, "lng": 24.0162469, "name": "Prassou Beach"}, {"lat": 40.0348336, "lng": 24.0040819, "name": ""}, {"lat": 40.0349364, "lng": 23.996772, "name": ""}, {"lat": 40.0351825, "lng": 23.9917658, "name": ""}, {"lat": 40.058238, "lng": 24.0042169, "name": "Αγριδιά"}, {"lat": 40.0520284, "lng": 23.9993463, "name": "Paralia Valti"}, {"lat": 40.0499935, "lng": 23.9910666, "name": ""}, {"lat": 40.0352209, "lng": 23.9906573, "name": ""}, {"lat": 40.048536, "lng": 23.989103, "name": ""}, {"lat": 40.0483283, "lng": 23.9888639, "name": ""}, {"lat": 40.1014994, "lng": 23.982086, "name": "Achlada Beach"}, {"lat": 40.0711898, "lng": 23.9946627, "name": ""}, {"lat": 40.103093, "lng": 23.9845518, "name": ""}, {"lat": 40.0733772, "lng": 23.9919133, "name": ""}, {"lat": 40.0997093, "lng": 23.9810469, "name": ""}, {"lat": 40.1290436, "lng": 23.95951, "name": "Μικρός Παράδεισος παραλία γυμνιστιών"}, {"lat": 40.1094909, "lng": 23.9909965, "name": ""}, {"lat": 40.1378634, "lng": 23.9351898, "name": ""}, {"lat": 40.1064956, "lng": 23.988613, "name": ""}, {"lat": 40.1211342, "lng": 23.9798965, "name": ""}, {"lat": 40.1271568, "lng": 23.9657863, "name": "Παραλία Μεγάλο Πορτοκάλι"}, {"lat": 40.1296313, "lng": 23.9589261, "name": "Παραλία Παράδεισος"}, {"lat": 40.1266641, "lng": 23.9689051, "name": "Παραλία Πορτοκάλι"}, {"lat": 40.1598908, "lng": 23.9001002, "name": "Παραλία"}, {"lat": 40.1601094, "lng": 23.8960387, "name": "Παραλία ονείρου"}, {"lat": 40.1549226, "lng": 23.9166443, "name": "Παραλία Αρμενιστής"}, {"lat": 40.1482936, "lng": 23.9235508, "name": ""}, {"lat": 38.7145906, "lng": 23.7512994, "name": "Λιμνιώνας"}, {"lat": 35.2469952, "lng": 23.8067885, "name": ""}, {"lat": 40.1626366, "lng": 23.8909027, "name": "Παραλία Ρόμπινσον"}, {"lat": 40.1676022, "lng": 23.8771408, "name": "Παραλία Μπανάνα"}, {"lat": 40.1723539, "lng": 23.8605723, "name": "Παραλία"}, {"lat": 40.1712382, "lng": 23.8647556, "name": "Παραλία Ζωγράφου"}, {"lat": 40.1703576, "lng": 23.8712286, "name": ""}, {"lat": 40.1861466, "lng": 23.8192516, "name": "Παραλία Μάνου"}, {"lat": 40.1867386, "lng": 23.8190048, "name": "Παραλία Μάνου"}, {"lat": 40.1872722, "lng": 23.8182909, "name": ""}, {"lat": 40.1700012, "lng": 23.8697168, "name": "Παραλία"}, {"lat": 40.1738902, "lng": 23.853239, "name": "Παραλία Κουτλουμούση"}, {"lat": 40.1846866, "lng": 23.8195559, "name": "Παραλία Φάβα"}, {"lat": 40.1899358, "lng": 23.7793919, "name": ""}, {"lat": 40.1889416, "lng": 23.7823855, "name": ""}, {"lat": 40.2242994, "lng": 23.7500387, "name": ""}, {"lat": 40.187867, "lng": 23.7888583, "name": ""}, {"lat": 35.1045631, "lng": 24.5766334, "name": ""}, {"lat": 39.016497, "lng": 26.5426662, "name": "Άγιος Ερμογένης"}, {"lat": 39.0175241, "lng": 26.5584419, "name": "Χαραμίδα"}, {"lat": 40.8634219, "lng": 25.6307301, "name": ""}, {"lat": 35.5920419, "lng": 23.5924758, "name": ""}, {"lat": 39.9691587, "lng": 25.3314588, "name": ""}, {"lat": 35.31585, "lng": 23.5364825, "name": ""}, {"lat": 35.2359697, "lng": 23.5927801, "name": ""}, {"lat": 40.0232636, "lng": 23.8348723, "name": "Παρ. Αζάπικο"}, {"lat": 40.0579691, "lng": 23.7940048, "name": ""}, {"lat": 40.0591517, "lng": 23.7932535, "name": ""}, {"lat": 40.0172539, "lng": 23.8470144, "name": ""}, {"lat": 40.1376826, "lng": 23.7440761, "name": ""}, {"lat": 39.9913239, "lng": 23.8929406, "name": ""}, {"lat": 40.1641541, "lng": 23.7255557, "name": ""}, {"lat": 40.0428013, "lng": 23.8120882, "name": ""}, {"lat": 40.0198668, "lng": 23.8284718, "name": ""}, {"lat": 40.2068217, "lng": 23.6754606, "name": "Παραλία Νικήτης"}, {"lat": 40.0206991, "lng": 23.8420764, "name": ""}, {"lat": 40.0609206, "lng": 23.7916826, "name": ""}, {"lat": 40.1426572, "lng": 23.7355438, "name": ""}, {"lat": 40.071839, "lng": 23.7891151, "name": ""}, {"lat": 40.0192998, "lng": 23.8448021, "name": ""}, {"lat": 40.0237557, "lng": 23.8148541, "name": ""}, {"lat": 40.0230298, "lng": 23.8169814, "name": ""}, {"lat": 40.1414407, "lng": 23.7399712, "name": ""}, {"lat": 40.0516449, "lng": 23.7994592, "name": ""}, {"lat": 37.5184104, "lng": 23.4359217, "name": "Παραλία Ρώσικος Ναύσταθμος"}, {"lat": 37.508389, "lng": 23.4680311, "name": "Ασκέλι"}, {"lat": 35.2323842, "lng": 23.6232523, "name": ""}, {"lat": 39.9874836, "lng": 25.2539665, "name": ""}, {"lat": 39.987559, "lng": 25.2567325, "name": ""}, {"lat": 39.9996691, "lng": 25.2012777, "name": ""}, {"lat": 39.9974099, "lng": 25.1944186, "name": ""}, {"lat": 39.9960722, "lng": 25.1903309, "name": ""}, {"lat": 39.9939319, "lng": 25.1786546, "name": ""}, {"lat": 39.9913172, "lng": 25.10226, "name": "Βάθρακας"}, {"lat": 39.9912173, "lng": 25.0834864, "name": ""}, {"lat": 39.9730936, "lng": 25.0491674, "name": ""}, {"lat": 39.8001006, "lng": 25.2123362, "name": ""}, {"lat": 39.8262455, "lng": 25.3541075, "name": "Limani Aghias Bay"}, {"lat": 39.7987809, "lng": 25.3503071, "name": "Louri Beach"}, {"lat": 39.9939562, "lng": 25.35923, "name": ""}, {"lat": 39.8917113, "lng": 25.3571651, "name": "Κέρος"}, {"lat": 39.8957985, "lng": 25.3550184, "name": "Κέρος"}, {"lat": 39.898933, "lng": 25.3543323, "name": "Κέρος"}, {"lat": 39.9032741, "lng": 25.354697, "name": "Κέρος"}, {"lat": 39.9080359, "lng": 25.3572881, "name": "Κέρος"}, {"lat": 39.912267, "lng": 25.3679754, "name": "Κέρος"}, {"lat": 39.9116786, "lng": 25.3784112, "name": "Κέρος"}, {"lat": 39.854523, "lng": 25.2384202, "name": "Μεγάλο Φαναράκι"}, {"lat": 39.8523622, "lng": 25.2397798, "name": "Katanopodhi Beach"}, {"lat": 39.8550144, "lng": 25.2425203, "name": "Μικρό Φαναράκι"}, {"lat": 39.9455277, "lng": 25.0512942, "name": ""}, {"lat": 37.5293553, "lng": 25.1822673, "name": ""}, {"lat": 37.6099024, "lng": 25.2384994, "name": ""}, {"lat": 37.6100881, "lng": 25.2371977, "name": "Λιβάδα"}, {"lat": 39.9919055, "lng": 25.1675444, "name": ""}, {"lat": 40.0003223, "lng": 25.1267752, "name": ""},